{
  "type": "FeatureCollection",
  "features": [
    {
      "type": "Feature",
      "geometry": {
        "type": "Point",
        "coordinates": [
          -49.806,
          10.341
        ]
      },
      "properties": {
        "symbolzoom": 7,
        "name": "Rory's Story",
        "labelId": "fpu",
        "ownerId": 26
      }
    },
    {
      "type": "Feature",
      "geometry": {
        "type": "Point",
        "coordinates": [
          -46.932,
          -6.533
        ]
      },
      "properties": {
        "symbolzoom": 4,
        "name": "Sports",
        "labelId": "ltu",
        "ownerId": 20
      }
    },
    {
      "type": "Feature",
      "geometry": {
        "type": "Point",
        "coordinates": [
          -82.722,
          -8.744
        ]
      },
      "properties": {
        "symbolzoom": 4,
        "name": "Collectible & Miniatures",
        "labelId": "og9",
        "ownerId": 10
      }
    },
    {
      "type": "Feature",
      "geometry": {
        "type": "Point",
        "coordinates": [
          -52.291,
          -33.646
        ]
      },
      "properties": {
        "symbolzoom": 4,
        "name": "Economic ",
        "labelId": "gkz",
        "ownerId": 16
      }
    },
    {
      "type": "Feature",
      "geometry": {
        "type": "Point",
        "coordinates": [
          -64.403,
          -18.98
        ]
      },
      "properties": {
        "symbolzoom": 5,
        "name": "Old school wargames",
        "labelId": "u8p",
        "ownerId": 7
      }
    },
    {
      "type": "Feature",
      "geometry": {
        "type": "Point",
        "coordinates": [
          -66.413,
          -11.277
        ]
      },
      "properties": {
        "symbolzoom": 4,
        "name": "Wargames",
        "labelId": "rrx",
        "ownerId": 6
      }
    },
    {
      "type": "Feature",
      "geometry": {
        "type": "Point",
        "coordinates": [
          -29.4,
          -0.998
        ]
      },
      "properties": {
        "symbolzoom": 5,
        "name": "Classic",
        "labelId": "e4q",
        "ownerId": 4
      }
    },
    {
      "type": "Feature",
      "geometry": {
        "type": "Point",
        "coordinates": [
          -3.108,
          -31.005
        ]
      },
      "properties": {
        "symbolzoom": 3,
        "name": "Manga",
        "labelId": "cp1",
        "ownerId": 18
      }
    },
    {
      "type": "Feature",
      "geometry": {
        "type": "Point",
        "coordinates": [
          6.598,
          -20.32
        ]
      },
      "properties": {
        "symbolzoom": 3,
        "name": "Lego",
        "labelId": "v5f",
        "ownerId": 21
      }
    },
    {
      "type": "Feature",
      "geometry": {
        "type": "Point",
        "coordinates": [
          0.94,
          -6.472
        ]
      },
      "properties": {
        "symbolzoom": 5,
        "name": "Funkoverse",
        "labelId": "3kt",
        "ownerId": 24
      }
    },
    {
      "type": "Feature",
      "geometry": {
        "type": "Point",
        "coordinates": [
          -4.903,
          4.673
        ]
      },
      "properties": {
        "symbolzoom": 4,
        "name": "Unmatched",
        "labelId": "ah3",
        "ownerId": 19
      }
    },
    {
      "type": "Feature",
      "geometry": {
        "type": "Point",
        "coordinates": [
          19.838,
          -17.163
        ]
      },
      "properties": {
        "symbolzoom": 7,
        "name": "Chris Handy",
        "labelId": "0iy",
        "ownerId": 25
      }
    },
    {
      "type": "Feature",
      "geometry": {
        "type": "Point",
        "coordinates": [
          25.43,
          -11.044
        ]
      },
      "properties": {
        "symbolzoom": 5,
        "name": "Deduction",
        "labelId": "m1h",
        "ownerId": 15
      }
    },
    {
      "type": "Feature",
      "geometry": {
        "type": "Point",
        "coordinates": [
          33.496,
          -14.304
        ]
      },
      "properties": {
        "symbolzoom": 5,
        "name": "Ascension",
        "labelId": "2nd",
        "ownerId": 22
      }
    },
    {
      "type": "Feature",
      "geometry": {
        "type": "Point",
        "coordinates": [
          46.594,
          -6.076
        ]
      },
      "properties": {
        "symbolzoom": 5,
        "name": "Solo games",
        "labelId": "evm",
        "ownerId": 12
      }
    },
    {
      "type": "Feature",
      "geometry": {
        "type": "Point",
        "coordinates": [
          31.585,
          27.027
        ]
      },
      "properties": {
        "symbolzoom": 5,
        "name": "Spanish",
        "labelId": "811",
        "ownerId": 11
      }
    },
    {
      "type": "Feature",
      "geometry": {
        "type": "Point",
        "coordinates": [
          64.349,
          34.569
        ]
      },
      "properties": {
        "symbolzoom": 5,
        "name": "Modern boardgames",
        "labelId": "kdo",
        "ownerId": 0
      }
    }
  ]
}