{"type":"FeatureCollection","features":[{"type":"Feature","geometry":{"type":"Point","coordinates":[7.62115,-1.8578000000000001]},"properties":{"name":"Mountain Goats"}},{"type":"Feature","geometry":{"type":"Point","coordinates":[8.46547,-1.9991999999999999]},"properties":{"name":"Mountain Goats"}},{"type":"Feature","geometry":{"type":"Point","coordinates":[8.02312,-1.8463]},"properties":{"name":"Sequoia"}},{"type":"Feature","geometry":{"type":"Point","coordinates":[7.8413900000000005,-1.8543]},"properties":{"name":"GPS"}},{"type":"Feature","geometry":{"type":"Point","coordinates":[8.48464,-1.6547999999999998]},"properties":{"name":"Bites"}},{"type":"Feature","geometry":{"type":"Point","coordinates":[8.87831,-1.9569999999999999]},"properties":{"name":"On Tour"}},{"type":"Feature","geometry":{"type":"Point","coordinates":[8.53152,-2.6639]},"properties":{"name":"Kabuto Sumo"}},{"type":"Feature","geometry":{"type":"Point","coordinates":[8.552999999999999,-2.3228]},"properties":{"name":"Super Mega Lucky Box"}},{"type":"Feature","geometry":{"type":"Point","coordinates":[9.20888,-2.0034]},"properties":{"name":"QE"}},{"type":"Feature","geometry":{"type":"Point","coordinates":[8.75301,-2.3412]},"properties":{"name":"TEN"}},{"type":"Feature","geometry":{"type":"Point","coordinates":[8.47688,-1.4950999999999999]},"properties":{"name":"Ghosts of Christmas"}},{"type":"Feature","geometry":{"type":"Point","coordinates":[9.09056,-2.4633000000000003]},"properties":{"name":"Long Shot: The Dice Game"}},{"type":"Feature","geometry":{"type":"Point","coordinates":[8.6878,-2.1596]},"properties":{"name":"Abandon All Artichokes"}},{"type":"Feature","geometry":{"type":"Point","coordinates":[8.798490000000001,-2.2631]},"properties":{"name":"Juicy Fruits"}},{"type":"Feature","geometry":{"type":"Point","coordinates":[8.812619999999999,-1.2863]},"properties":{"name":"Habitats"}},{"type":"Feature","geometry":{"type":"Point","coordinates":[9.2685,-2.3553]},"properties":{"name":"Cat in the Box: Deluxe Edition"}},{"type":"Feature","geometry":{"type":"Point","coordinates":[9.20415,-2.5979]},"properties":{"name":"Verdant"}},{"type":"Feature","geometry":{"type":"Point","coordinates":[8.91159,-2.8520999999999996]},"properties":{"name":"Dice Miner"}},{"type":"Feature","geometry":{"type":"Point","coordinates":[9.05936,-2.6942000000000004]},"properties":{"name":"Ready Set Bet"}},{"type":"Feature","geometry":{"type":"Point","coordinates":[8.58229,-2.6108999999999996]},"properties":{"name":"Floriferous"}},{"type":"Feature","geometry":{"type":"Point","coordinates":[8.66892,-2.0549]},"properties":{"name":"Ohanami"}},{"type":"Feature","geometry":{"type":"Point","coordinates":[8.79644,-1.9568]},"properties":{"name":"Silver & Gold"}},{"type":"Feature","geometry":{"type":"Point","coordinates":[8.73942,-2.6197000000000004]},"properties":{"name":"Picture Perfect"}},{"type":"Feature","geometry":{"type":"Point","coordinates":[8.91788,-1.8030000000000002]},"properties":{"name":"Copenhagen"}},{"type":"Feature","geometry":{"type":"Point","coordinates":[8.608920000000001,-2.2068]},"properties":{"name":"Tussie Mussie"}},{"type":"Feature","geometry":{"type":"Point","coordinates":[9.17578,-1.8556]},"properties":{"name":"Renature"}},{"type":"Feature","geometry":{"type":"Point","coordinates":[9.17106,-2.1324]},"properties":{"name":"Mille Fiori"}},{"type":"Feature","geometry":{"type":"Point","coordinates":[8.74717,-2.7743]},"properties":{"name":"Paint the Roses"}},{"type":"Feature","geometry":{"type":"Point","coordinates":[8.67904,-2.4499]},"properties":{"name":"Trekking the World"}},{"type":"Feature","geometry":{"type":"Point","coordinates":[9.39347,-2.3512]},"properties":{"name":"The Guild of Merchant Explorers"}},{"type":"Feature","geometry":{"type":"Point","coordinates":[9.16307,-2.363]},"properties":{"name":"Akropolis"}},{"type":"Feature","geometry":{"type":"Point","coordinates":[8.57909,-2.0619]},"properties":{"name":"Lucky Numbers"}},{"type":"Feature","geometry":{"type":"Point","coordinates":[9.21801,-2.201]},"properties":{"name":"First Rat"}},{"type":"Feature","geometry":{"type":"Point","coordinates":[9.256219999999999,-2.0863]},"properties":{"name":"Fantastic Factories"}},{"type":"Feature","geometry":{"type":"Point","coordinates":[8.4513,-1.7587000000000002]},"properties":{"name":"Metro X"}},{"type":"Feature","geometry":{"type":"Point","coordinates":[9.33362,-2.2712]},"properties":{"name":"Planet Unknown"}},{"type":"Feature","geometry":{"type":"Point","coordinates":[8.93322,-2.2168]},"properties":{"name":"So Clover!"}},{"type":"Feature","geometry":{"type":"Point","coordinates":[8.58892,-2.7591]},"properties":{"name":"boop"}},{"type":"Feature","geometry":{"type":"Point","coordinates":[8.38964,-2.2447999999999997]},"properties":{"name":"Truffle Shuffle"}},{"type":"Feature","geometry":{"type":"Point","coordinates":[8.77476,-1.6928]},"properties":{"name":"Illusion"}},{"type":"Feature","geometry":{"type":"Point","coordinates":[9.126570000000001,-2.2472]},"properties":{"name":"Project L"}},{"type":"Feature","geometry":{"type":"Point","coordinates":[8.63759,-1.7823]},"properties":{"name":"Circle the Wagons"}},{"type":"Feature","geometry":{"type":"Point","coordinates":[8.8648,-2.6144]},"properties":{"name":"My Shelfie"}},{"type":"Feature","geometry":{"type":"Point","coordinates":[9.00578,-2.7903]},"properties":{"name":"Trekking Through History"}},{"type":"Feature","geometry":{"type":"Point","coordinates":[9.06342,-2.1063]},"properties":{"name":"Santa Monica"}},{"type":"Feature","geometry":{"type":"Point","coordinates":[9.04246,-2.234]},"properties":{"name":"New York Zoo"}},{"type":"Feature","geometry":{"type":"Point","coordinates":[8.72448,-2.9114]},"properties":{"name":"Kites"}},{"type":"Feature","geometry":{"type":"Point","coordinates":[9.17162,-2.725]},"properties":{"name":"Evergreen"}},{"type":"Feature","geometry":{"type":"Point","coordinates":[8.379199999999999,-2.4299]},"properties":{"name":"Sonora"}},{"type":"Feature","geometry":{"type":"Point","coordinates":[8.67264,-1.0805]},"properties":{"name":"Factory Funner"}},{"type":"Feature","geometry":{"type":"Point","coordinates":[9.05547,-2.9851]},"properties":{"name":"Point City"}},{"type":"Feature","geometry":{"type":"Point","coordinates":[8.83125,-2.4278999999999997]},"properties":{"name":"Next Station: London"}},{"type":"Feature","geometry":{"type":"Point","coordinates":[9.52044,-2.734]},"properties":{"name":"Foundations of Rome"}},{"type":"Feature","geometry":{"type":"Point","coordinates":[9.455119999999999,-2.0688999999999997]},"properties":{"name":"Furnace"}},{"type":"Feature","geometry":{"type":"Point","coordinates":[8.58307,-1.4402000000000001]},"properties":{"name":"Drop It"}},{"type":"Feature","geometry":{"type":"Point","coordinates":[8.29301,-1.7761000000000002]},"properties":{"name":"5211"}},{"type":"Feature","geometry":{"type":"Point","coordinates":[8.50887,-1.3731]},"properties":{"name":"Dealt!"}},{"type":"Feature","geometry":{"type":"Point","coordinates":[9.00978,-1.5881]},"properties":{"name":"Luxor"}},{"type":"Feature","geometry":{"type":"Point","coordinates":[8.84599,-1.1562000000000001]},"properties":{"name":"Fuji Flush"}},{"type":"Feature","geometry":{"type":"Point","coordinates":[8.595650000000001,-1.5384]},"properties":{"name":"Strike"}},{"type":"Feature","geometry":{"type":"Point","coordinates":[8.74904,-2.0684]},"properties":{"name":"Savannah Park"}},{"type":"Feature","geometry":{"type":"Point","coordinates":[8.85143,-2.0534]},"properties":{"name":"Trails of Tucana"}},{"type":"Feature","geometry":{"type":"Point","coordinates":[9.43671,-1.4728]},"properties":{"name":"Ginkgopolis"}},{"type":"Feature","geometry":{"type":"Point","coordinates":[8.98833,-2.3043]},"properties":{"name":"7 Wonders: Architects"}},{"type":"Feature","geometry":{"type":"Point","coordinates":[9.185410000000001,-0.7875]},"properties":{"name":"Sanssouci"}},{"type":"Feature","geometry":{"type":"Point","coordinates":[9.10132,-2.0347999999999997]},"properties":{"name":"Nova Luna"}},{"type":"Feature","geometry":{"type":"Point","coordinates":[8.93649,-1.1965000000000001]},"properties":{"name":"Linko"}},{"type":"Feature","geometry":{"type":"Point","coordinates":[8.94643,-1.7022]},"properties":{"name":"Reef"}},{"type":"Feature","geometry":{"type":"Point","coordinates":[9.39373,-1.6534]},"properties":{"name":"Crown of Emara"}},{"type":"Feature","geometry":{"type":"Point","coordinates":[9.35709,-1.7931]},"properties":{"name":"The Castles of Tuscany"}},{"type":"Feature","geometry":{"type":"Point","coordinates":[8.92803,-2.1086]},"properties":{"name":"CuBirds"}},{"type":"Feature","geometry":{"type":"Point","coordinates":[8.54184,-2.5147]},"properties":{"name":"Tranquility"}},{"type":"Feature","geometry":{"type":"Point","coordinates":[9.31991,-1.7222]},"properties":{"name":"Carpe Diem"}},{"type":"Feature","geometry":{"type":"Point","coordinates":[8.82933,-1.4768999999999999]},"properties":{"name":"Marrakech"}},{"type":"Feature","geometry":{"type":"Point","coordinates":[9.29687,-2.6093]},"properties":{"name":"Turing Machine"}},{"type":"Feature","geometry":{"type":"Point","coordinates":[8.390270000000001,-1.3578999999999999]},"properties":{"name":"Roll to the Top!"}},{"type":"Feature","geometry":{"type":"Point","coordinates":[8.8046,-1.7821]},"properties":{"name":"Walking in Burano"}},{"type":"Feature","geometry":{"type":"Point","coordinates":[9.34637,-1.2588]},"properties":{"name":"Gold West"}},{"type":"Feature","geometry":{"type":"Point","coordinates":[9.24274,-2.4358]},"properties":{"name":"Cubitos"}},{"type":"Feature","geometry":{"type":"Point","coordinates":[9.46798,-0.9105]},"properties":{"name":"Valletta"}},{"type":"Feature","geometry":{"type":"Point","coordinates":[8.82825,-0.8572]},"properties":{"name":"Animals on Board"}},{"type":"Feature","geometry":{"type":"Point","coordinates":[8.79566,-2.8663]},"properties":{"name":"Wandering Towers"}},{"type":"Feature","geometry":{"type":"Point","coordinates":[9.21082,-2.2998]},"properties":{"name":"Azul: Queen's Garden"}},{"type":"Feature","geometry":{"type":"Point","coordinates":[9.07205,-2.3232]},"properties":{"name":"Living Forest"}},{"type":"Feature","geometry":{"type":"Point","coordinates":[9.16659,-0.642]},"properties":{"name":"Saint Malo"}},{"type":"Feature","geometry":{"type":"Point","coordinates":[9.01942,-0.26739999999999997]},"properties":{"name":"Lost Legacy: The Starship"}},{"type":"Feature","geometry":{"type":"Point","coordinates":[8.8674,0.09119999999999999]},"properties":{"name":"Lost Legacy: Flying Garden"}},{"type":"Feature","geometry":{"type":"Point","coordinates":[8.77571,0.2005]},"properties":{"name":"Lost Legacy: Second Chronicle - Vorpal Sword & Whitegold Spire"}},{"type":"Feature","geometry":{"type":"Point","coordinates":[9.14049,-0.8651000000000001]},"properties":{"name":"Valley of the Kings"}},{"type":"Feature","geometry":{"type":"Point","coordinates":[9.35789,-0.6672]},"properties":{"name":"Guildhall"}},{"type":"Feature","geometry":{"type":"Point","coordinates":[9.00732,0.3815]},"properties":{"name":"Cypher"}},{"type":"Feature","geometry":{"type":"Point","coordinates":[9.05539,-0.2082]},"properties":{"name":"Council of Verona"}},{"type":"Feature","geometry":{"type":"Point","coordinates":[9.05962,-0.09789999999999999]},"properties":{"name":"Cheaty Mages!"}},{"type":"Feature","geometry":{"type":"Point","coordinates":[9.31929,-0.9743]},"properties":{"name":"Viceroy"}},{"type":"Feature","geometry":{"type":"Point","coordinates":[8.996459999999999,-0.0533]},"properties":{"name":"Rent a Hero"}},{"type":"Feature","geometry":{"type":"Point","coordinates":[8.94105,-0.2923]},"properties":{"name":"Eminent Domain: Microcosm"}},{"type":"Feature","geometry":{"type":"Point","coordinates":[9.418529999999999,-0.4495]},"properties":{"name":"Greed"}},{"type":"Feature","geometry":{"type":"Point","coordinates":[8.657960000000001,-0.5549000000000001]},"properties":{"name":"Pairs"}},{"type":"Feature","geometry":{"type":"Point","coordinates":[9.26991,-1.0459]},"properties":{"name":"Discoveries: The Journals of Lewis & Clark"}},{"type":"Feature","geometry":{"type":"Point","coordinates":[8.91515,-0.9612]},"properties":{"name":"Medieval Academy"}},{"type":"Feature","geometry":{"type":"Point","coordinates":[9.643049999999999,-0.39380000000000004]},"properties":{"name":"Impulse"}},{"type":"Feature","geometry":{"type":"Point","coordinates":[8.71115,-0.9331]},"properties":{"name":"Witness"}},{"type":"Feature","geometry":{"type":"Point","coordinates":[9.07584,-0.8081999999999999]},"properties":{"name":"Artifacts, Inc"}},{"type":"Feature","geometry":{"type":"Point","coordinates":[9.13214,-0.7277]},"properties":{"name":"Favor of the Pharaoh"}},{"type":"Feature","geometry":{"type":"Point","coordinates":[8.9213,-0.0536]},"properties":{"name":"Coin Age"}},{"type":"Feature","geometry":{"type":"Point","coordinates":[8.634400000000001,0.09380000000000001]},"properties":{"name":"Dragon Slayer"}},{"type":"Feature","geometry":{"type":"Point","coordinates":[9.55572,-0.73]},"properties":{"name":"Legacy: The Testament of Duke de Crecy"}},{"type":"Feature","geometry":{"type":"Point","coordinates":[9.51523,-0.9917]},"properties":{"name":"Spyrium"}},{"type":"Feature","geometry":{"type":"Point","coordinates":[9.21171,-1.1743999999999999]},"properties":{"name":"La Isla"}},{"type":"Feature","geometry":{"type":"Point","coordinates":[8.23833,-1.2059]},"properties":{"name":"9 Lives"}},{"type":"Feature","geometry":{"type":"Point","coordinates":[9.26835,-1.8547]},"properties":{"name":"Century: A New World"}},{"type":"Feature","geometry":{"type":"Point","coordinates":[9.201459999999999,-1.6781]},"properties":{"name":"Century: Eastern Wonders"}},{"type":"Feature","geometry":{"type":"Point","coordinates":[9.11743,-1.5109000000000001]},"properties":{"name":"Majesty: For the Realm"}},{"type":"Feature","geometry":{"type":"Point","coordinates":[9.5344,-1.4805000000000001]},"properties":{"name":"Altiplano"}},{"type":"Feature","geometry":{"type":"Point","coordinates":[9.11514,-1.6815]},"properties":{"name":"Dragon Castle"}},{"type":"Feature","geometry":{"type":"Point","coordinates":[9.042200000000001,-1.8746]},"properties":{"name":"Twice as Clever!"}},{"type":"Feature","geometry":{"type":"Point","coordinates":[9.409510000000001,-1.5727000000000002]},"properties":{"name":"Santa Maria"}},{"type":"Feature","geometry":{"type":"Point","coordinates":[9.75438,-1.7074]},"properties":{"name":"Blackout: Hong Kong"}},{"type":"Feature","geometry":{"type":"Point","coordinates":[9.36678,-2.1877]},"properties":{"name":"Aquatica"}},{"type":"Feature","geometry":{"type":"Point","coordinates":[9.63571,-1.6161]},"properties":{"name":"Pulsar 2849"}},{"type":"Feature","geometry":{"type":"Point","coordinates":[9.82334,-1.9472]},"properties":{"name":"Tekhenu: Obelisk of the Sun"}},{"type":"Feature","geometry":{"type":"Point","coordinates":[9.14448,-1.9506000000000001]},"properties":{"name":"Dice Hospital"}},{"type":"Feature","geometry":{"type":"Point","coordinates":[9.11123,-1.8532]},"properties":{"name":"Ishtar: Gardens of Babylon"}},{"type":"Feature","geometry":{"type":"Point","coordinates":[8.99692,-2.1576]},"properties":{"name":"Mariposas"}},{"type":"Feature","geometry":{"type":"Point","coordinates":[9.67764,-2.0047]},"properties":{"name":"Praga Caput Regni"}},{"type":"Feature","geometry":{"type":"Point","coordinates":[9.43778,-2.2537000000000003]},"properties":{"name":"Imperial Settlers: Empires of the North"}},{"type":"Feature","geometry":{"type":"Point","coordinates":[9.22916,-1.6022999999999998]},"properties":{"name":"Ex Libris"}},{"type":"Feature","geometry":{"type":"Point","coordinates":[9.30754,-2.0352]},"properties":{"name":"Raccoon Tycoon"}},{"type":"Feature","geometry":{"type":"Point","coordinates":[9.48212,-1.8693]},"properties":{"name":"The Magnificent"}},{"type":"Feature","geometry":{"type":"Point","coordinates":[8.9312,-2.0084]},"properties":{"name":"Little Town"}},{"type":"Feature","geometry":{"type":"Point","coordinates":[9.24372,-1.2629000000000001]},"properties":{"name":"Via Nebula"}},{"type":"Feature","geometry":{"type":"Point","coordinates":[9.48826,-2.515]},"properties":{"name":"Red Rising"}},{"type":"Feature","geometry":{"type":"Point","coordinates":[9.76773,-1.3906999999999998]},"properties":{"name":"Forum Trajanum"}},{"type":"Feature","geometry":{"type":"Point","coordinates":[8.99682,-2.0679]},"properties":{"name":"Railroad Ink: Blazing Red Edition"}},{"type":"Feature","geometry":{"type":"Point","coordinates":[8.9075,-1.2795999999999998]},"properties":{"name":"The River"}},{"type":"Feature","geometry":{"type":"Point","coordinates":[9.84831,-1.7671999999999999]},"properties":{"name":"Black Angel"}},{"type":"Feature","geometry":{"type":"Point","coordinates":[9.70283,-2.2045]},"properties":{"name":"In the Hall of the Mountain King"}},{"type":"Feature","geometry":{"type":"Point","coordinates":[9.37603,-2.5221999999999998]},"properties":{"name":"Honey Buzz"}},{"type":"Feature","geometry":{"type":"Point","coordinates":[8.69297,-1.5315]},"properties":{"name":"Archaeology: The New Expedition"}},{"type":"Feature","geometry":{"type":"Point","coordinates":[9.07669,-1.765]},"properties":{"name":"Paper Tales"}},{"type":"Feature","geometry":{"type":"Point","coordinates":[9.65893,-1.1809]},"properties":{"name":"Council of 4"}},{"type":"Feature","geometry":{"type":"Point","coordinates":[9.49411,-1.9672999999999998]},"properties":{"name":"IKI"}},{"type":"Feature","geometry":{"type":"Point","coordinates":[9.01042,-1.2915999999999999]},"properties":{"name":"Fabled Fruit"}},{"type":"Feature","geometry":{"type":"Point","coordinates":[8.70382,-1.9193]},"properties":{"name":"Letter Jam"}},{"type":"Feature","geometry":{"type":"Point","coordinates":[9.69262,-1.4346]},"properties":{"name":"The Manhattan Project: Energy Empire"}},{"type":"Feature","geometry":{"type":"Point","coordinates":[9.87194,-1.3988]},"properties":{"name":"Gentes"}},{"type":"Feature","geometry":{"type":"Point","coordinates":[9.51965,-2.2285]},"properties":{"name":"Pan Am"}},{"type":"Feature","geometry":{"type":"Point","coordinates":[8.82892,-1.3765]},"properties":{"name":"Orbis"}},{"type":"Feature","geometry":{"type":"Point","coordinates":[9.41658,-2.6091]},"properties":{"name":"Flamecraft"}},{"type":"Feature","geometry":{"type":"Point","coordinates":[9.69436,-2.4319]},"properties":{"name":"Endless Winter: Paleoamericans"}},{"type":"Feature","geometry":{"type":"Point","coordinates":[9.68736,-1.3448]},"properties":{"name":"Riverboat"}},{"type":"Feature","geometry":{"type":"Point","coordinates":[9.76244,-2.4531]},"properties":{"name":"Raiders of Scythia"}},{"type":"Feature","geometry":{"type":"Point","coordinates":[9.73714,-1.5012999999999999]},"properties":{"name":"Dice Settlers"}},{"type":"Feature","geometry":{"type":"Point","coordinates":[10.08299,-1.7147999999999999]},"properties":{"name":"Trismegistus: The Ultimate Formula"}},{"type":"Feature","geometry":{"type":"Point","coordinates":[9.871749999999999,-1.5766]},"properties":{"name":"Pret-a-Porter"}},{"type":"Feature","geometry":{"type":"Point","coordinates":[9.8969,-1.7035]},"properties":{"name":"Cooper Island"}},{"type":"Feature","geometry":{"type":"Point","coordinates":[8.86874,-1.7022]},"properties":{"name":"Meeple Circus"}},{"type":"Feature","geometry":{"type":"Point","coordinates":[10.12195,-1.8318]},"properties":{"name":"Tawantinsuyu: The Inca Empire"}},{"type":"Feature","geometry":{"type":"Point","coordinates":[8.57333,-1.696]},"properties":{"name":"Imhotep: The Duel"}},{"type":"Feature","geometry":{"type":"Point","coordinates":[9.54724,-1.62]},"properties":{"name":"Masters of Renaissance: Lorenzo il Magnifico - The Card Game"}},{"type":"Feature","geometry":{"type":"Point","coordinates":[9.96762,-1.6178]},"properties":{"name":"Crystal Palace"}},{"type":"Feature","geometry":{"type":"Point","coordinates":[9.84735,-2.0662000000000003]},"properties":{"name":"Vindication"}},{"type":"Feature","geometry":{"type":"Point","coordinates":[8.71106,-1.7881]},"properties":{"name":"Herbaceous"}},{"type":"Feature","geometry":{"type":"Point","coordinates":[9.09561,-1.3052000000000001]},"properties":{"name":"Sentient"}},{"type":"Feature","geometry":{"type":"Point","coordinates":[9.589170000000001,-1.0269]},"properties":{"name":"Saint Petersburg (Second Edition)"}},{"type":"Feature","geometry":{"type":"Point","coordinates":[10.04572,-1.9093]},"properties":{"name":"Caylus 1303"}},{"type":"Feature","geometry":{"type":"Point","coordinates":[9.378210000000001,-2.6719999999999997]},"properties":{"name":"Atlantis Rising (Second Edition)"}},{"type":"Feature","geometry":{"type":"Point","coordinates":[8.83082,-2.3363]},"properties":{"name":"Coatl"}},{"type":"Feature","geometry":{"type":"Point","coordinates":[9.26783,-1.669]},"properties":{"name":"Rune Stones"}},{"type":"Feature","geometry":{"type":"Point","coordinates":[9.473559999999999,-1.1784999999999999]},"properties":{"name":"Shakespeare"}},{"type":"Feature","geometry":{"type":"Point","coordinates":[10.07042,-1.982]},"properties":{"name":"Circadians: First Light"}},{"type":"Feature","geometry":{"type":"Point","coordinates":[9.98217,-1.9833]},"properties":{"name":"Messina 1347"}},{"type":"Feature","geometry":{"type":"Point","coordinates":[9.75092,-2.3524000000000003]},"properties":{"name":"Revive"}},{"type":"Feature","geometry":{"type":"Point","coordinates":[8.92456,-1.8827]},"properties":{"name":"The Grimm Forest"}},{"type":"Feature","geometry":{"type":"Point","coordinates":[9.96142,-2.0697]},"properties":{"name":"Golem"}},{"type":"Feature","geometry":{"type":"Point","coordinates":[9.663,-2.141]},"properties":{"name":"Gutenberg"}},{"type":"Feature","geometry":{"type":"Point","coordinates":[9.502469999999999,-2.6093]},"properties":{"name":"Libertalia: Winds of Galecrest"}},{"type":"Feature","geometry":{"type":"Point","coordinates":[8.800839999999999,-2.1387]},"properties":{"name":"Clever Cubed"}},{"type":"Feature","geometry":{"type":"Point","coordinates":[9.23006,-0.9412]},"properties":{"name":"Scoville"}},{"type":"Feature","geometry":{"type":"Point","coordinates":[10.06707,-1.6202]},"properties":{"name":"Vinhos: Deluxe Edition"}},{"type":"Feature","geometry":{"type":"Point","coordinates":[10.14014,-1.198]},"properties":{"name":"Agra"}},{"type":"Feature","geometry":{"type":"Point","coordinates":[10.00954,-1.2929]},"properties":{"name":"The Colonists"}},{"type":"Feature","geometry":{"type":"Point","coordinates":[9.16479,-0.9902]},"properties":{"name":"La Granja: No Siesta"}},{"type":"Feature","geometry":{"type":"Point","coordinates":[9.39741,-0.9832]},"properties":{"name":"Automania"}},{"type":"Feature","geometry":{"type":"Point","coordinates":[9.62421,-1.4765000000000001]},"properties":{"name":"Rise of Tribes"}},{"type":"Feature","geometry":{"type":"Point","coordinates":[9.26825,-2.249]},"properties":{"name":"Shards of Infinity"}},{"type":"Feature","geometry":{"type":"Point","coordinates":[9.60419,-0.9658]},"properties":{"name":"Jorvik"}},{"type":"Feature","geometry":{"type":"Point","coordinates":[9.49629,-1.3115]},"properties":{"name":"Unfair"}},{"type":"Feature","geometry":{"type":"Point","coordinates":[9.78923,-0.9288]},"properties":{"name":"Kraftwagen"}},{"type":"Feature","geometry":{"type":"Point","coordinates":[9.66215,-1.0306]},"properties":{"name":"Myrmes"}},{"type":"Feature","geometry":{"type":"Point","coordinates":[9.45717,-1.0354]},"properties":{"name":"Alien Artifacts"}},{"type":"Feature","geometry":{"type":"Point","coordinates":[9.91283,-1.2246]},"properties":{"name":"Calimala"}},{"type":"Feature","geometry":{"type":"Point","coordinates":[9.611799999999999,-2.2237]},"properties":{"name":"Viscounts of the West Kingdom"}},{"type":"Feature","geometry":{"type":"Point","coordinates":[9.65239,-1.8872]},"properties":{"name":"Bonfire"}},{"type":"Feature","geometry":{"type":"Point","coordinates":[9.58953,-1.9547999999999999]},"properties":{"name":"Smartphone Inc"}},{"type":"Feature","geometry":{"type":"Point","coordinates":[9.80043,-2.5313999999999997]},"properties":{"name":"Dwellings of Eldervale"}},{"type":"Feature","geometry":{"type":"Point","coordinates":[9.9021,-2.2444]},"properties":{"name":"Darwin's Journey"}},{"type":"Feature","geometry":{"type":"Point","coordinates":[9.41924,-2.4483]},"properties":{"name":"Fort"}},{"type":"Feature","geometry":{"type":"Point","coordinates":[9.59688,-1.5345]},"properties":{"name":"Nusfjord"}},{"type":"Feature","geometry":{"type":"Point","coordinates":[10.03627,-1.7853]},"properties":{"name":"Escape Plan"}},{"type":"Feature","geometry":{"type":"Point","coordinates":[9.9376,-1.8288]},"properties":{"name":"Alma Mater"}},{"type":"Feature","geometry":{"type":"Point","coordinates":[9.28553,-1.4425]},"properties":{"name":"Yamatai"}},{"type":"Feature","geometry":{"type":"Point","coordinates":[9.219529999999999,-2.5111000000000003]},"properties":{"name":"Welcome to the Moon"}},{"type":"Feature","geometry":{"type":"Point","coordinates":[9.1325,-2.5374]},"properties":{"name":"Splendor Duel"}},{"type":"Feature","geometry":{"type":"Point","coordinates":[10.14682,-2.1959]},"properties":{"name":"Great Western Trail: Argentina"}},{"type":"Feature","geometry":{"type":"Point","coordinates":[10.10923,-2.1318]},"properties":{"name":"Reavers of Midgard"}},{"type":"Feature","geometry":{"type":"Point","coordinates":[9.93559,-1.3355000000000001]},"properties":{"name":"Kanban: Driver's Edition"}},{"type":"Feature","geometry":{"type":"Point","coordinates":[9.37398,-1.3891999999999998]},"properties":{"name":"First Class: All Aboard the Orient Express!"}},{"type":"Feature","geometry":{"type":"Point","coordinates":[10.12228,-2.256]},"properties":{"name":"Brazil: Imperial"}},{"type":"Feature","geometry":{"type":"Point","coordinates":[10.275150000000002,-2.1071]},"properties":{"name":"Weather Machine"}},{"type":"Feature","geometry":{"type":"Point","coordinates":[9.357999999999999,-2.0919]},"properties":{"name":"Witchstone"}},{"type":"Feature","geometry":{"type":"Point","coordinates":[10.05023,-2.3385]},"properties":{"name":"Rococo: Deluxe Edition"}},{"type":"Feature","geometry":{"type":"Point","coordinates":[9.88791,-2.0149]},"properties":{"name":"CloudAge"}},{"type":"Feature","geometry":{"type":"Point","coordinates":[10.01799,-2.4202]},"properties":{"name":"Mosaic: A Story of Civilization"}},{"type":"Feature","geometry":{"type":"Point","coordinates":[10.164299999999999,-2.5409]},"properties":{"name":"The Great Wall"}},{"type":"Feature","geometry":{"type":"Point","coordinates":[9.775549999999999,-1.2722]},"properties":{"name":"Bruxelles 1893"}},{"type":"Feature","geometry":{"type":"Point","coordinates":[9.93187,-2.4364]},"properties":{"name":"Hansa Teutonica: Big Box"}},{"type":"Feature","geometry":{"type":"Point","coordinates":[9.70002,-1.579]},"properties":{"name":"New Frontiers"}},{"type":"Feature","geometry":{"type":"Point","coordinates":[9.16431,-1.32]},"properties":{"name":"The Castles of Burgundy: The Card Game"}},{"type":"Feature","geometry":{"type":"Point","coordinates":[9.29574,-1.54]},"properties":{"name":"The Pursuit of Happiness"}},{"type":"Feature","geometry":{"type":"Point","coordinates":[9.56826,-1.1917]},"properties":{"name":"Amerigo"}},{"type":"Feature","geometry":{"type":"Point","coordinates":[9.95285,-2.5212]},"properties":{"name":"The White Castle"}},{"type":"Feature","geometry":{"type":"Point","coordinates":[9.33712,-2.7855000000000003]},"properties":{"name":"Dinosaur Island: Rawr 'n Write"}},{"type":"Feature","geometry":{"type":"Point","coordinates":[9.17606,-1.5716999999999999]},"properties":{"name":"Valeria: Card Kingdoms"}},{"type":"Feature","geometry":{"type":"Point","coordinates":[10.26065,-1.7813999999999999]},"properties":{"name":"Tabannusi: Builders of Ur"}},{"type":"Feature","geometry":{"type":"Point","coordinates":[9.6071,-2.8498]},"properties":{"name":"Clank!: Catacombs"}},{"type":"Feature","geometry":{"type":"Point","coordinates":[9.097140000000001,-2.1804]},"properties":{"name":"Roam"}},{"type":"Feature","geometry":{"type":"Point","coordinates":[10.07122,-2.0502000000000002]},"properties":{"name":"Marrakesh"}},{"type":"Feature","geometry":{"type":"Point","coordinates":[10.06443,-2.6370999999999998]},"properties":{"name":"Dead Reckoning"}},{"type":"Feature","geometry":{"type":"Point","coordinates":[9.74654,-1.1801000000000001]},"properties":{"name":"Luna"}},{"type":"Feature","geometry":{"type":"Point","coordinates":[9.00868,-1.4852]},"properties":{"name":"Istanbul: The Dice Game"}},{"type":"Feature","geometry":{"type":"Point","coordinates":[8.91498,-1.4311]},"properties":{"name":"The Castles of Burgundy: The Dice Game"}},{"type":"Feature","geometry":{"type":"Point","coordinates":[9.64684,-2.478]},"properties":{"name":"Lockup: A Roll Player Tale"}},{"type":"Feature","geometry":{"type":"Point","coordinates":[9.865929999999999,-1.1223999999999998]},"properties":{"name":"Signorie"}},{"type":"Feature","geometry":{"type":"Point","coordinates":[10.08221,-2.4996]},"properties":{"name":"Oath: Chronicles of Empire & Exile"}},{"type":"Feature","geometry":{"type":"Point","coordinates":[9.52156,-1.0876000000000001]},"properties":{"name":"Ulm"}},{"type":"Feature","geometry":{"type":"Point","coordinates":[10.084719999999999,-1.5175999999999998]},"properties":{"name":"Outlive"}},{"type":"Feature","geometry":{"type":"Point","coordinates":[9.477960000000001,-2.8173000000000004]},"properties":{"name":"It's a Wonderful Kingdom"}},{"type":"Feature","geometry":{"type":"Point","coordinates":[9.95385,-1.5284]},"properties":{"name":"Faiyum"}},{"type":"Feature","geometry":{"type":"Point","coordinates":[9.57424,-2.5974]},"properties":{"name":"Call to Adventure"}},{"type":"Feature","geometry":{"type":"Point","coordinates":[9.14495,-1.7823]},"properties":{"name":"Troyes Dice"}},{"type":"Feature","geometry":{"type":"Point","coordinates":[10.367550000000001,-1.6765999999999999]},"properties":{"name":"Imperial Steam"}},{"type":"Feature","geometry":{"type":"Point","coordinates":[10.16283,-2.4171]},"properties":{"name":"Skymines"}},{"type":"Feature","geometry":{"type":"Point","coordinates":[9.82558,-1.1978]},"properties":{"name":"The Prodigals Club"}},{"type":"Feature","geometry":{"type":"Point","coordinates":[9.124880000000001,-1.4051]},"properties":{"name":"Indian Summer"}},{"type":"Feature","geometry":{"type":"Point","coordinates":[8.750539999999999,-2.1802]},"properties":{"name":"Conspiracy: Abyss Universe"}},{"type":"Feature","geometry":{"type":"Point","coordinates":[9.87572,-2.6239999999999997]},"properties":{"name":"Encyclopedia"}},{"type":"Feature","geometry":{"type":"Point","coordinates":[10.37943,-1.7875]},"properties":{"name":"Coffee Traders"}},{"type":"Feature","geometry":{"type":"Point","coordinates":[9.45214,-1.2425]},"properties":{"name":"Fields of Green"}},{"type":"Feature","geometry":{"type":"Point","coordinates":[9.86511,-2.8487999999999998]},"properties":{"name":"Unfathomable"}},{"type":"Feature","geometry":{"type":"Point","coordinates":[8.93909,-2.5337]},"properties":{"name":"Codex Naturalis"}},{"type":"Feature","geometry":{"type":"Point","coordinates":[9.34903,-2.9674]},"properties":{"name":"Wingspan Asia"}},{"type":"Feature","geometry":{"type":"Point","coordinates":[10.12877,-1.5693000000000001]},"properties":{"name":"Expedition to Newdale"}},{"type":"Feature","geometry":{"type":"Point","coordinates":[9.17731,-2.4483]},"properties":{"name":"Air, Land, & Sea"}},{"type":"Feature","geometry":{"type":"Point","coordinates":[9.60845,-1.0973]},"properties":{"name":"Coal Baron"}},{"type":"Feature","geometry":{"type":"Point","coordinates":[9.09955,-2.7894]},"properties":{"name":"Caper: Europe"}},{"type":"Feature","geometry":{"type":"Point","coordinates":[10.27445,-2.2144]},"properties":{"name":"Abomination: The Heir of Frankenstein"}},{"type":"Feature","geometry":{"type":"Point","coordinates":[10.02149,-1.0412000000000001]},"properties":{"name":"ZhanGuo"}},{"type":"Feature","geometry":{"type":"Point","coordinates":[10.305489999999999,-2.4712]},"properties":{"name":"Clash of Cultures: Monumental Edition"}},{"type":"Feature","geometry":{"type":"Point","coordinates":[10.144589999999999,-1.3719]},"properties":{"name":"Argent: The Consortium"}},{"type":"Feature","geometry":{"type":"Point","coordinates":[9.07491,-1.9265]},"properties":{"name":"Duelosaur Island"}},{"type":"Feature","geometry":{"type":"Point","coordinates":[10.40074,-1.8888999999999998]},"properties":{"name":"Cerebria: The Inside World"}},{"type":"Feature","geometry":{"type":"Point","coordinates":[9.09426,-2.6055]},"properties":{"name":"Bad Company"}},{"type":"Feature","geometry":{"type":"Point","coordinates":[10.05965,-1.3571]},"properties":{"name":"The Great Zimbabwe"}},{"type":"Feature","geometry":{"type":"Point","coordinates":[8.86294,-2.5237]},"properties":{"name":"Wild Space"}},{"type":"Feature","geometry":{"type":"Point","coordinates":[10.28255,-2.4122]},"properties":{"name":"Nucleum"}},{"type":"Feature","geometry":{"type":"Point","coordinates":[10.03043,-2.5664999999999996]},"properties":{"name":"Imperium: Legends"}},{"type":"Feature","geometry":{"type":"Point","coordinates":[9.72908,-2.5262000000000002]},"properties":{"name":"Imperium: Classics"}},{"type":"Feature","geometry":{"type":"Point","coordinates":[9.56537,-2.435]},"properties":{"name":"Hadrian's Wall"}},{"type":"Feature","geometry":{"type":"Point","coordinates":[9.770249999999999,-2.0144]},"properties":{"name":"Carnegie"}},{"type":"Feature","geometry":{"type":"Point","coordinates":[9.83741,-2.4087]},"properties":{"name":"Wayfarers of the South Tigris"}},{"type":"Feature","geometry":{"type":"Point","coordinates":[9.9217,-1.9102000000000001]},"properties":{"name":"Boonlake"}},{"type":"Feature","geometry":{"type":"Point","coordinates":[10.26228,-2.7904]},"properties":{"name":"Cloudspire"}},{"type":"Feature","geometry":{"type":"Point","coordinates":[9.41673,-2.9119]},"properties":{"name":"Bullethearts "}},{"type":"Feature","geometry":{"type":"Point","coordinates":[9.736839999999999,-1.8266999999999998]},"properties":{"name":"Hallertau"}},{"type":"Feature","geometry":{"type":"Point","coordinates":[9.61361,-2.07]},"properties":{"name":"Glen More II: Chronicles"}},{"type":"Feature","geometry":{"type":"Point","coordinates":[9.84969,-1.8622]},"properties":{"name":"Merv: The Heart of the Silk Road"}},{"type":"Feature","geometry":{"type":"Point","coordinates":[10.057780000000001,-2.2158]},"properties":{"name":"Kanban EV"}},{"type":"Feature","geometry":{"type":"Point","coordinates":[9.48148,-2.3805]},"properties":{"name":"Earth"}},{"type":"Feature","geometry":{"type":"Point","coordinates":[9.80678,-2.1475999999999997]},"properties":{"name":"Tiletum"}},{"type":"Feature","geometry":{"type":"Point","coordinates":[9.61704,-3.0658999999999996]},"properties":{"name":"Final Girl"}},{"type":"Feature","geometry":{"type":"Point","coordinates":[9.61522,-2.7773000000000003]},"properties":{"name":"Mind MGMT: The Psychic Espionage "}},{"type":"Feature","geometry":{"type":"Point","coordinates":[8.99682,-2.6241000000000003]},"properties":{"name":"Regicide"}},{"type":"Feature","geometry":{"type":"Point","coordinates":[9.65624,-2.2946]},"properties":{"name":"Khora: Rise of an Empire"}},{"type":"Feature","geometry":{"type":"Point","coordinates":[9.47056,-2.1596]},"properties":{"name":"The Red Cathedral"}},{"type":"Feature","geometry":{"type":"Point","coordinates":[9.573360000000001,-1.7133]},"properties":{"name":"Newton"}},{"type":"Feature","geometry":{"type":"Point","coordinates":[9.2337,-2.6798]},"properties":{"name":"Three Sisters"}},{"type":"Feature","geometry":{"type":"Point","coordinates":[9.88331,-2.531]},"properties":{"name":"Merchants Cove"}},{"type":"Feature","geometry":{"type":"Point","coordinates":[10.32771,-1.8459999999999999]},"properties":{"name":"Clinic: Deluxe Edition"}},{"type":"Feature","geometry":{"type":"Point","coordinates":[9.66416,-1.6965999999999999]},"properties":{"name":"Gugong"}},{"type":"Feature","geometry":{"type":"Point","coordinates":[9.047369999999999,-2.4023]},"properties":{"name":"Coffee Roaster"}},{"type":"Feature","geometry":{"type":"Point","coordinates":[9.33889,-2.4316]},"properties":{"name":"Meadow"}},{"type":"Feature","geometry":{"type":"Point","coordinates":[8.99976,-2.469]},"properties":{"name":"Challengers!"}},{"type":"Feature","geometry":{"type":"Point","coordinates":[9.4657,-2.9787]},"properties":{"name":"Star Wars: The Deckbuilding Game"}},{"type":"Feature","geometry":{"type":"Point","coordinates":[9.67115,-2.6948000000000003]},"properties":{"name":"Wonderland's War"}},{"type":"Feature","geometry":{"type":"Point","coordinates":[9.46311,-1.7596]},"properties":{"name":"Crusaders: Thy Will Be Done"}},{"type":"Feature","geometry":{"type":"Point","coordinates":[10.184980000000001,-2.8424]},"properties":{"name":"War of the Ring: The Card Game"}},{"type":"Feature","geometry":{"type":"Point","coordinates":[9.97591,-2.1538]},"properties":{"name":"Thunderstone Quest"}},{"type":"Feature","geometry":{"type":"Point","coordinates":[9.79245,-2.6367000000000003]},"properties":{"name":"Distilled"}},{"type":"Feature","geometry":{"type":"Point","coordinates":[9.55653,-3.0356]},"properties":{"name":"Summoner Wars (Second Edition)"}},{"type":"Feature","geometry":{"type":"Point","coordinates":[8.979199999999999,-1.9419]},"properties":{"name":"Mandala"}},{"type":"Feature","geometry":{"type":"Point","coordinates":[9.78517,-1.8893]},"properties":{"name":"Sidereal Confluence"}},{"type":"Feature","geometry":{"type":"Point","coordinates":[8.92482,-1.6035]},"properties":{"name":"Dale of Merchants"}},{"type":"Feature","geometry":{"type":"Point","coordinates":[8.78112,-2.5682]},"properties":{"name":"Jekyll vs Hyde"}},{"type":"Feature","geometry":{"type":"Point","coordinates":[9.9719,-2.3671]},"properties":{"name":"Ultimate Railroads"}},{"type":"Feature","geometry":{"type":"Point","coordinates":[8.94324,-2.6104000000000003]},"properties":{"name":"Oriflamme"}},{"type":"Feature","geometry":{"type":"Point","coordinates":[9.1895,-2.8967]},"properties":{"name":"Paper Dungeons: A Dungeon Scrawler Game"}},{"type":"Feature","geometry":{"type":"Point","coordinates":[10.57616,-1.9894999999999998]},"properties":{"name":"Hamburg"}},{"type":"Feature","geometry":{"type":"Point","coordinates":[10.597539999999999,-2.1395]},"properties":{"name":"Amsterdam"}},{"type":"Feature","geometry":{"type":"Point","coordinates":[10.219940000000001,-2.0013]},"properties":{"name":"Zapotec"}},{"type":"Feature","geometry":{"type":"Point","coordinates":[10.21753,-2.2588]},"properties":{"name":"Terracotta Army"}},{"type":"Feature","geometry":{"type":"Point","coordinates":[10.30355,-2.303]},"properties":{"name":"Federation"}},{"type":"Feature","geometry":{"type":"Point","coordinates":[10.44807,-2.1666]},"properties":{"name":"Rise"}},{"type":"Feature","geometry":{"type":"Point","coordinates":[10.43822,-1.9911]},"properties":{"name":"Oranienburger Kanal"}},{"type":"Feature","geometry":{"type":"Point","coordinates":[8.526159999999999,-2.0122999999999998]},"properties":{"name":"Claim"}},{"type":"Feature","geometry":{"type":"Point","coordinates":[9.32726,-1.0898999999999999]},"properties":{"name":"Super Motherload"}},{"type":"Feature","geometry":{"type":"Point","coordinates":[9.37346,-1.1813]},"properties":{"name":"The Palaces of Carrara"}},{"type":"Feature","geometry":{"type":"Point","coordinates":[9.62614,-1.262]},"properties":{"name":"AquaSphere"}},{"type":"Feature","geometry":{"type":"Point","coordinates":[8.755040000000001,-1.1938]},"properties":{"name":"Beasty Bar"}},{"type":"Feature","geometry":{"type":"Point","coordinates":[9.06878,-0.8909999999999999]},"properties":{"name":"Villages of Valeria"}},{"type":"Feature","geometry":{"type":"Point","coordinates":[9.85668,-1.3102]},"properties":{"name":"Nippon"}},{"type":"Feature","geometry":{"type":"Point","coordinates":[8.641259999999999,-1.6127]},"properties":{"name":"Encore!"}},{"type":"Feature","geometry":{"type":"Point","coordinates":[8.94735,-1.3262]},"properties":{"name":"Vikings Gone Wild"}},{"type":"Feature","geometry":{"type":"Point","coordinates":[8.83295,-1.5787]},"properties":{"name":"Gingerbread House"}},{"type":"Feature","geometry":{"type":"Point","coordinates":[9.002419999999999,-0.9539]},"properties":{"name":"The Builders: Middle Ages"}},{"type":"Feature","geometry":{"type":"Point","coordinates":[9.926309999999999,-1.7646000000000002]},"properties":{"name":"Wildlands"}},{"type":"Feature","geometry":{"type":"Point","coordinates":[8.79866,-1.0033]},"properties":{"name":"Coconuts"}},{"type":"Feature","geometry":{"type":"Point","coordinates":[9.55237,-0.8885]},"properties":{"name":"Rialto"}},{"type":"Feature","geometry":{"type":"Point","coordinates":[8.78547,-1.0946]},"properties":{"name":"Oceanos"}},{"type":"Feature","geometry":{"type":"Point","coordinates":[8.37001,-1.7457]},"properties":{"name":"Imagine"}},{"type":"Feature","geometry":{"type":"Point","coordinates":[8.84014,-1.642]},"properties":{"name":"Kitchen Rush"}},{"type":"Feature","geometry":{"type":"Point","coordinates":[9.99522,-1.2075]},"properties":{"name":"Madeira"}},{"type":"Feature","geometry":{"type":"Point","coordinates":[9.952530000000001,-1.1214]},"properties":{"name":"Railroad Revolution"}},{"type":"Feature","geometry":{"type":"Point","coordinates":[9.98201,-0.9654]},"properties":{"name":"Panamax"}},{"type":"Feature","geometry":{"type":"Point","coordinates":[9.69749,-1.0907]},"properties":{"name":"Snowdonia"}},{"type":"Feature","geometry":{"type":"Point","coordinates":[10.09947,-0.9251]},"properties":{"name":"CO2"}},{"type":"Feature","geometry":{"type":"Point","coordinates":[10.22942,-1.1012]},"properties":{"name":"Arkwright"}},{"type":"Feature","geometry":{"type":"Point","coordinates":[9.48898,-1.3884999999999998]},"properties":{"name":"The Oracle of Delphi"}},{"type":"Feature","geometry":{"type":"Point","coordinates":[9.77324,-1.0868]},"properties":{"name":"Francis Drake"}},{"type":"Feature","geometry":{"type":"Point","coordinates":[9.49268,-1.5648]},"properties":{"name":"Heaven & Ale"}},{"type":"Feature","geometry":{"type":"Point","coordinates":[10.02333,-0.8684999999999999]},"properties":{"name":"Haspelknecht: The Story of Early Coal Mining"}},{"type":"Feature","geometry":{"type":"Point","coordinates":[9.87406,-0.7481]},"properties":{"name":"The Golden Ages"}},{"type":"Feature","geometry":{"type":"Point","coordinates":[9.48466,-1.6718000000000002]},"properties":{"name":"Coimbra"}},{"type":"Feature","geometry":{"type":"Point","coordinates":[9.429829999999999,-1.0885]},"properties":{"name":"Firenze"}},{"type":"Feature","geometry":{"type":"Point","coordinates":[9.60718,-0.8107]},"properties":{"name":"Murano"}},{"type":"Feature","geometry":{"type":"Point","coordinates":[10.05019,-1.1418000000000001]},"properties":{"name":"Keyper"}},{"type":"Feature","geometry":{"type":"Point","coordinates":[9.62926,-0.6711]},"properties":{"name":"Helios"}},{"type":"Feature","geometry":{"type":"Point","coordinates":[9.57611,-1.3421]},"properties":{"name":"Merlin"}},{"type":"Feature","geometry":{"type":"Point","coordinates":[9.92479,-1.0177]},"properties":{"name":"Transatlantic"}},{"type":"Feature","geometry":{"type":"Point","coordinates":[9.93547,-0.8944]},"properties":{"name":"Yedo"}},{"type":"Feature","geometry":{"type":"Point","coordinates":[9.633329999999999,-0.8803]},"properties":{"name":"My Village"}},{"type":"Feature","geometry":{"type":"Point","coordinates":[9.28957,-1.206]},"properties":{"name":"Nations: The Dice Game"}},{"type":"Feature","geometry":{"type":"Point","coordinates":[9.696860000000001,-0.94]},"properties":{"name":"Porta Nigra"}},{"type":"Feature","geometry":{"type":"Point","coordinates":[9.3008,-0.887]},"properties":{"name":"Fleet"}},{"type":"Feature","geometry":{"type":"Point","coordinates":[9.989550000000001,-1.7137]},"properties":{"name":"Pipeline"}},{"type":"Feature","geometry":{"type":"Point","coordinates":[10.13308,-1.2801]},"properties":{"name":"Wendake"}},{"type":"Feature","geometry":{"type":"Point","coordinates":[9.876280000000001,-0.9531999999999999]},"properties":{"name":"Hyperborea"}},{"type":"Feature","geometry":{"type":"Point","coordinates":[9.99514,-0.71]},"properties":{"name":"Historia"}},{"type":"Feature","geometry":{"type":"Point","coordinates":[9.87351,-0.857]},"properties":{"name":"Guilds of London"}},{"type":"Feature","geometry":{"type":"Point","coordinates":[10.32706,-1.0521]},"properties":{"name":"Wildcatters"}},{"type":"Feature","geometry":{"type":"Point","coordinates":[9.572989999999999,-1.8697]},"properties":{"name":"Marco Polo II: In the Service of the Khan"}},{"type":"Feature","geometry":{"type":"Point","coordinates":[9.66315,-0.5725]},"properties":{"name":"OddVille"}},{"type":"Feature","geometry":{"type":"Point","coordinates":[10.273769999999999,-0.95]},"properties":{"name":"Tramways"}},{"type":"Feature","geometry":{"type":"Point","coordinates":[10.02054,-1.482]},"properties":{"name":"Bus"}},{"type":"Feature","geometry":{"type":"Point","coordinates":[9.398010000000001,-0.7367]},"properties":{"name":"Le Havre: The Inland Port"}},{"type":"Feature","geometry":{"type":"Point","coordinates":[10.10256,-0.611]},"properties":{"name":"Ships"}},{"type":"Feature","geometry":{"type":"Point","coordinates":[10.07248,-0.9926]},"properties":{"name":"Tammany Hall"}},{"type":"Feature","geometry":{"type":"Point","coordinates":[10.387270000000001,-1.2415]},"properties":{"name":"1846: The Race for the Midwest"}},{"type":"Feature","geometry":{"type":"Point","coordinates":[9.73436,-1.9388999999999998]},"properties":{"name":"Anno 1800: The Board Game"}},{"type":"Feature","geometry":{"type":"Point","coordinates":[9.19042,-1.0769]},"properties":{"name":"Kashgar: Merchants of the Silk Road"}},{"type":"Feature","geometry":{"type":"Point","coordinates":[10.22105,-1.3771]},"properties":{"name":"Terramara"}},{"type":"Feature","geometry":{"type":"Point","coordinates":[9.74552,-1.0079]},"properties":{"name":"Ponzi Scheme"}},{"type":"Feature","geometry":{"type":"Point","coordinates":[9.109829999999999,-1.1298000000000001]},"properties":{"name":"Automobiles"}},{"type":"Feature","geometry":{"type":"Point","coordinates":[9.784790000000001,-2.2254]},"properties":{"name":"Woodcraft"}},{"type":"Feature","geometry":{"type":"Point","coordinates":[9.60288,-1.4059]},"properties":{"name":"Chimera Station"}},{"type":"Feature","geometry":{"type":"Point","coordinates":[9.42377,-1.3316999999999999]},"properties":{"name":"Whistle Stop"}},{"type":"Feature","geometry":{"type":"Point","coordinates":[9.80315,-1.5641999999999998]},"properties":{"name":"The Estates"}},{"type":"Feature","geometry":{"type":"Point","coordinates":[9.85174,-0.6046]},"properties":{"name":"Expedition: Northwest Passage"}},{"type":"Feature","geometry":{"type":"Point","coordinates":[9.1262,-1.2322]},"properties":{"name":"Honshu"}},{"type":"Feature","geometry":{"type":"Point","coordinates":[9.81995,-0.6888]},"properties":{"name":"Brew Crafters"}},{"type":"Feature","geometry":{"type":"Point","coordinates":[10.21506,-0.5278]},"properties":{"name":"Asgard"}},{"type":"Feature","geometry":{"type":"Point","coordinates":[10.12522,-1.0393999999999999]},"properties":{"name":"Noria"}},{"type":"Feature","geometry":{"type":"Point","coordinates":[10.470640000000001,-1.0290000000000001]},"properties":{"name":"Three Kingdoms Redux"}},{"type":"Feature","geometry":{"type":"Point","coordinates":[9.73603,-0.6834]},"properties":{"name":"Dynasties: Heirate & Herrsche"}},{"type":"Feature","geometry":{"type":"Point","coordinates":[9.38551,-0.5761999999999999]},"properties":{"name":"El Gaucho"}},{"type":"Feature","geometry":{"type":"Point","coordinates":[9.341280000000001,-0.8264]},"properties":{"name":"Mottainai"}},{"type":"Feature","geometry":{"type":"Point","coordinates":[10.05014,-0.7779]},"properties":{"name":"Burano"}},{"type":"Feature","geometry":{"type":"Point","coordinates":[9.53223,-1.2551999999999999]},"properties":{"name":"Otys"}},{"type":"Feature","geometry":{"type":"Point","coordinates":[9.75385,-0.4866]},"properties":{"name":"Inhabit the Earth"}},{"type":"Feature","geometry":{"type":"Point","coordinates":[9.991660000000001,-0.5887]},"properties":{"name":"Mythotopia"}},{"type":"Feature","geometry":{"type":"Point","coordinates":[9.46822,-0.7511]},"properties":{"name":"Citrus"}},{"type":"Feature","geometry":{"type":"Point","coordinates":[9.28019,-1.1162]},"properties":{"name":"Akrotiri"}},{"type":"Feature","geometry":{"type":"Point","coordinates":[10.12621,-0.5152]},"properties":{"name":"The Capitals"}},{"type":"Feature","geometry":{"type":"Point","coordinates":[9.69436,-1.2431999999999999]},"properties":{"name":"Castell"}},{"type":"Feature","geometry":{"type":"Point","coordinates":[10.28874,-1.7065000000000001]},"properties":{"name":"CO2: Second Chance"}},{"type":"Feature","geometry":{"type":"Point","coordinates":[9.83949,-2.3038]},"properties":{"name":"Bitoku"}},{"type":"Feature","geometry":{"type":"Point","coordinates":[10.16279,-1.636]},"properties":{"name":"AuZtralia"}},{"type":"Feature","geometry":{"type":"Point","coordinates":[9.8389,-0.5246999999999999]},"properties":{"name":"Progress: Evolution of Technology"}},{"type":"Feature","geometry":{"type":"Point","coordinates":[9.4338,-0.8453]},"properties":{"name":"The Climbers"}},{"type":"Feature","geometry":{"type":"Point","coordinates":[10.505820000000002,-1.1334]},"properties":{"name":"Lignum (Second Edition)"}},{"type":"Feature","geometry":{"type":"Point","coordinates":[10.246199999999998,-1.1944]},"properties":{"name":"Mare Nostrum: Empires"}},{"type":"Feature","geometry":{"type":"Point","coordinates":[9.28228,-0.6224000000000001]},"properties":{"name":"Mangrovia"}},{"type":"Feature","geometry":{"type":"Point","coordinates":[9.84418,-0.4389]},"properties":{"name":"Praetor"}},{"type":"Feature","geometry":{"type":"Point","coordinates":[9.23842,-0.7089]},"properties":{"name":"Trambahn"}},{"type":"Feature","geometry":{"type":"Point","coordinates":[9.92053,-0.6656]},"properties":{"name":"Key to the City: London"}},{"type":"Feature","geometry":{"type":"Point","coordinates":[9.036200000000001,-1.1147]},"properties":{"name":"New York 1901"}},{"type":"Feature","geometry":{"type":"Point","coordinates":[9.52534,-0.6574]},"properties":{"name":"Steam Time"}},{"type":"Feature","geometry":{"type":"Point","coordinates":[10.35684,-0.7206]},"properties":{"name":"Lignum"}},{"type":"Feature","geometry":{"type":"Point","coordinates":[10.26885,-0.7003]},"properties":{"name":"Dilluvia Project"}},{"type":"Feature","geometry":{"type":"Point","coordinates":[10.3038,-1.244]},"properties":{"name":"Crisis"}},{"type":"Feature","geometry":{"type":"Point","coordinates":[9.351849999999999,-1.4856]},"properties":{"name":"Reykholt"}},{"type":"Feature","geometry":{"type":"Point","coordinates":[9.63222,-1.7941]},"properties":{"name":"Paris"}},{"type":"Feature","geometry":{"type":"Point","coordinates":[9.841140000000001,-1.6542]},"properties":{"name":"Irish Gauge"}},{"type":"Feature","geometry":{"type":"Point","coordinates":[10.187809999999999,-1.4818]},"properties":{"name":"Ragusa"}},{"type":"Feature","geometry":{"type":"Point","coordinates":[10.223289999999999,-0.7866]},"properties":{"name":"Ave Roma"}},{"type":"Feature","geometry":{"type":"Point","coordinates":[9.65035,-0.7364]},"properties":{"name":"Barony"}},{"type":"Feature","geometry":{"type":"Point","coordinates":[9.79452,-0.3778]},"properties":{"name":"City of Iron"}},{"type":"Feature","geometry":{"type":"Point","coordinates":[9.94699,-0.8]},"properties":{"name":"The Flow of History"}},{"type":"Feature","geometry":{"type":"Point","coordinates":[9.66529,-0.4976]},"properties":{"name":"Queen's Architect"}},{"type":"Feature","geometry":{"type":"Point","coordinates":[10.18709,-0.8695999999999999]},"properties":{"name":"Empires: Age of Discovery"}},{"type":"Feature","geometry":{"type":"Point","coordinates":[9.23237,-1.5296]},"properties":{"name":"Caverna: Cave vs Cave"}},{"type":"Feature","geometry":{"type":"Point","coordinates":[9.04988,-0.7306]},"properties":{"name":"Harbour"}},{"type":"Feature","geometry":{"type":"Point","coordinates":[10.291459999999999,-0.8298000000000001]},"properties":{"name":"Antike II"}},{"type":"Feature","geometry":{"type":"Point","coordinates":[9.04432,-1.1989]},"properties":{"name":"World's Fair 1893"}},{"type":"Feature","geometry":{"type":"Point","coordinates":[9.44573,-0.6537999999999999]},"properties":{"name":"Medina (Second Edition)"}},{"type":"Feature","geometry":{"type":"Point","coordinates":[10.40173,-0.8626999999999999]},"properties":{"name":"The Ruhr: A Story of Coal Trade"}},{"type":"Feature","geometry":{"type":"Point","coordinates":[9.588239999999999,-0.5788]},"properties":{"name":"Trick of the Rails"}},{"type":"Feature","geometry":{"type":"Point","coordinates":[10.15789,-0.7177]},"properties":{"name":"Round House"}},{"type":"Feature","geometry":{"type":"Point","coordinates":[9.38766,-0.8863]},"properties":{"name":"Montana"}},{"type":"Feature","geometry":{"type":"Point","coordinates":[9.33951,-0.4907]},"properties":{"name":"Plums"}},{"type":"Feature","geometry":{"type":"Point","coordinates":[10.15567,-1.1106]},"properties":{"name":"Dogs of War"}},{"type":"Feature","geometry":{"type":"Point","coordinates":[10.08158,-0.359]},"properties":{"name":"Archon: Glory & Machination"}},{"type":"Feature","geometry":{"type":"Point","coordinates":[9.801499999999999,-0.8572]},"properties":{"name":"13 Days: The Cuban Missile Crisis, 1962"}},{"type":"Feature","geometry":{"type":"Point","coordinates":[10.41275,-1.3921000000000001]},"properties":{"name":"Founders of Gloomhaven"}},{"type":"Feature","geometry":{"type":"Point","coordinates":[10.26916,-0.5683]},"properties":{"name":"Forge War"}},{"type":"Feature","geometry":{"type":"Point","coordinates":[10.22995,-1.2777]},"properties":{"name":"Rise to Nobility"}},{"type":"Feature","geometry":{"type":"Point","coordinates":[8.9784,-1.0248]},"properties":{"name":"SteamRollers"}},{"type":"Feature","geometry":{"type":"Point","coordinates":[10.34751,-0.861]},"properties":{"name":"Vanuatu (Second Edition)"}},{"type":"Feature","geometry":{"type":"Point","coordinates":[9.5926,-0.44659999999999994]},"properties":{"name":"504"}},{"type":"Feature","geometry":{"type":"Point","coordinates":[10.324739999999998,-1.3525]},"properties":{"name":"Gentes: Deluxified Edition"}},{"type":"Feature","geometry":{"type":"Point","coordinates":[9.05371,-1.3855000000000002]},"properties":{"name":"Jump Drive"}},{"type":"Feature","geometry":{"type":"Point","coordinates":[10.339749999999999,-0.632]},"properties":{"name":"Solarius Mission"}},{"type":"Feature","geometry":{"type":"Point","coordinates":[9.898060000000001,-2.1455]},"properties":{"name":"Atiwa"}},{"type":"Feature","geometry":{"type":"Point","coordinates":[9.98558,-2.2825]},"properties":{"name":"Lacrimosa"}},{"type":"Feature","geometry":{"type":"Point","coordinates":[10.16759,-1.9463]},"properties":{"name":"Stroganov"}},{"type":"Feature","geometry":{"type":"Point","coordinates":[9.73055,-2.103]},"properties":{"name":"Brian Boru: High King of Ireland"}},{"type":"Feature","geometry":{"type":"Point","coordinates":[9.55496,-2.1422]},"properties":{"name":"Whistle Mountain"}},{"type":"Feature","geometry":{"type":"Point","coordinates":[10.4772,-0.645]},"properties":{"name":"Small City"}},{"type":"Feature","geometry":{"type":"Point","coordinates":[10.480920000000001,-1.7836]},"properties":{"name":"Dominant Species: Marine"}},{"type":"Feature","geometry":{"type":"Point","coordinates":[9.240929999999999,-0.4918]},"properties":{"name":"The Great Heartland Hauling Co"}},{"type":"Feature","geometry":{"type":"Point","coordinates":[10.414359999999999,-1.3102]},"properties":{"name":"Container: 10th Anniversary Jumbo Edition!"}},{"type":"Feature","geometry":{"type":"Point","coordinates":[10.330599999999999,-1.148]},"properties":{"name":"Magnastorm"}},{"type":"Feature","geometry":{"type":"Point","coordinates":[10.02446,-2.1333]},"properties":{"name":"Space Station Phoenix"}},{"type":"Feature","geometry":{"type":"Point","coordinates":[9.27553,-1.9561000000000002]},"properties":{"name":"Villagers"}},{"type":"Feature","geometry":{"type":"Point","coordinates":[10.41131,-1.1486]},"properties":{"name":"Prehistory"}},{"type":"Feature","geometry":{"type":"Point","coordinates":[9.018740000000001,-1.6893]},"properties":{"name":"Blue Lagoon"}},{"type":"Feature","geometry":{"type":"Point","coordinates":[9.37449,-1.9763]},"properties":{"name":"Chocolate Factory"}},{"type":"Feature","geometry":{"type":"Point","coordinates":[9.20799,-0.8681]},"properties":{"name":"Warsaw: City of Ruins"}},{"type":"Feature","geometry":{"type":"Point","coordinates":[8.99087,-0.7390000000000001]},"properties":{"name":"Carcassonne: South Seas"}},{"type":"Feature","geometry":{"type":"Point","coordinates":[10.398769999999999,-0.9419]},"properties":{"name":"Kepler-3042"}},{"type":"Feature","geometry":{"type":"Point","coordinates":[10.03174,-1.5624]},"properties":{"name":"Bruxelles 1897"}},{"type":"Feature","geometry":{"type":"Point","coordinates":[8.84877,-1.8537000000000001]},"properties":{"name":"LLAMA"}},{"type":"Feature","geometry":{"type":"Point","coordinates":[9.31242,-1.6016]},"properties":{"name":"Babylonia"}},{"type":"Feature","geometry":{"type":"Point","coordinates":[9.108550000000001,-0.9519]},"properties":{"name":"Islebound"}},{"type":"Feature","geometry":{"type":"Point","coordinates":[8.88303,-1.0476999999999999]},"properties":{"name":"Adventure Land"}},{"type":"Feature","geometry":{"type":"Point","coordinates":[9.51249,-0.8243]},"properties":{"name":"Tybor the Builder"}},{"type":"Feature","geometry":{"type":"Point","coordinates":[10.478219999999999,-0.956]},"properties":{"name":"18Lilliput"}},{"type":"Feature","geometry":{"type":"Point","coordinates":[8.64663,-1.3799000000000001]},"properties":{"name":"Martian Dice"}},{"type":"Feature","geometry":{"type":"Point","coordinates":[9.9034,-0.5893999999999999]},"properties":{"name":"A Study in Emerald (Second Edition)"}},{"type":"Feature","geometry":{"type":"Point","coordinates":[10.38652,-0.9924]},"properties":{"name":"Carson City: Big Box"}},{"type":"Feature","geometry":{"type":"Point","coordinates":[9.958390000000001,-1.4342]},"properties":{"name":"Sierra West"}},{"type":"Feature","geometry":{"type":"Point","coordinates":[10.40239,-2.0611]},"properties":{"name":"Autobahn"}},{"type":"Feature","geometry":{"type":"Point","coordinates":[10.001900000000001,-1.3721]},"properties":{"name":"Notre Dame: 10th Anniversary"}},{"type":"Feature","geometry":{"type":"Point","coordinates":[10.145710000000001,-0.7881999999999999]},"properties":{"name":"The King Is Dead"}},{"type":"Feature","geometry":{"type":"Point","coordinates":[9.29298,-1.3433000000000002]},"properties":{"name":"Pioneer Days"}},{"type":"Feature","geometry":{"type":"Point","coordinates":[9.23274,-1.3898]},"properties":{"name":"NEOM"}},{"type":"Feature","geometry":{"type":"Point","coordinates":[9.00456,-0.8527]},"properties":{"name":"Treasure Hunter"}},{"type":"Feature","geometry":{"type":"Point","coordinates":[9.009400000000001,-0.7948000000000001]},"properties":{"name":"Watson & Holmes"}},{"type":"Feature","geometry":{"type":"Point","coordinates":[9.47702,-0.6085]},"properties":{"name":"Power Grid: The Card Game"}},{"type":"Feature","geometry":{"type":"Point","coordinates":[10.18066,-2.0595]},"properties":{"name":"Origins: First Builders"}},{"type":"Feature","geometry":{"type":"Point","coordinates":[9.44902,-0.5434]},"properties":{"name":"Colony"}},{"type":"Feature","geometry":{"type":"Point","coordinates":[9.52896,-0.5475]},"properties":{"name":"Dokmus"}},{"type":"Feature","geometry":{"type":"Point","coordinates":[10.04636,-0.5185]},"properties":{"name":"Papa Paolo"}},{"type":"Feature","geometry":{"type":"Point","coordinates":[9.37235,-1.0367]},"properties":{"name":"Lift Off"}},{"type":"Feature","geometry":{"type":"Point","coordinates":[10.03318,-1.8443]},"properties":{"name":"Yellow & Yangtze"}},{"type":"Feature","geometry":{"type":"Point","coordinates":[9.94614,-0.5476]},"properties":{"name":"Steam Works"}},{"type":"Feature","geometry":{"type":"Point","coordinates":[9.21943,-1.921]},"properties":{"name":"Between Two Castles of Mad King Ludwig"}},{"type":"Feature","geometry":{"type":"Point","coordinates":[9.40033,-1.8851]},"properties":{"name":"Ecos: First Continent"}},{"type":"Feature","geometry":{"type":"Point","coordinates":[9.31587,-1.8944999999999999]},"properties":{"name":"Era: Medieval Age"}},{"type":"Feature","geometry":{"type":"Point","coordinates":[9.64386,-2.5422]},"properties":{"name":"The King Is Dead: Second Edition"}},{"type":"Feature","geometry":{"type":"Point","coordinates":[9.1168,-1.5941]},"properties":{"name":"Solenia"}},{"type":"Feature","geometry":{"type":"Point","coordinates":[8.75329,-1.8553]},"properties":{"name":"Cat Lady"}},{"type":"Feature","geometry":{"type":"Point","coordinates":[9.2939,-2.1553999999999998]},"properties":{"name":"Fleet: The Dice Game"}},{"type":"Feature","geometry":{"type":"Point","coordinates":[8.74529,-1.6096000000000001]},"properties":{"name":"Corinth"}},{"type":"Feature","geometry":{"type":"Point","coordinates":[9.01891,-2.5462000000000002]},"properties":{"name":"Sea Salt & Paper"}},{"type":"Feature","geometry":{"type":"Point","coordinates":[8.66854,-1.8586]},"properties":{"name":"Planet"}},{"type":"Feature","geometry":{"type":"Point","coordinates":[9.63119,-2.3609]},"properties":{"name":"Tang Garden"}},{"type":"Feature","geometry":{"type":"Point","coordinates":[9.572809999999999,-2.5144]},"properties":{"name":"Oceans"}},{"type":"Feature","geometry":{"type":"Point","coordinates":[8.94811,-1.1107]},"properties":{"name":"Hit Z Road"}},{"type":"Feature","geometry":{"type":"Point","coordinates":[9.57267,-2.3125]},"properties":{"name":"Maglev Metro"}},{"type":"Feature","geometry":{"type":"Point","coordinates":[8.782720000000001,-1.4411]},"properties":{"name":"Unearth"}},{"type":"Feature","geometry":{"type":"Point","coordinates":[9.03899,-2.0016]},"properties":{"name":"Rajas of the Ganges: The Dice Charmers"}},{"type":"Feature","geometry":{"type":"Point","coordinates":[9.00598,-2.3768000000000002]},"properties":{"name":"Paris: La Cite de la Lumiere"}},{"type":"Feature","geometry":{"type":"Point","coordinates":[9.071810000000001,-1.5613]},"properties":{"name":"Kingsburg (Second Edition)"}},{"type":"Feature","geometry":{"type":"Point","coordinates":[8.67359,-1.297]},"properties":{"name":"New York Slice"}},{"type":"Feature","geometry":{"type":"Point","coordinates":[8.8488,-1.2181]},"properties":{"name":"Viral"}},{"type":"Feature","geometry":{"type":"Point","coordinates":[8.67322,-1.4539]},"properties":{"name":"Insider"}},{"type":"Feature","geometry":{"type":"Point","coordinates":[9.69858,-1.77]},"properties":{"name":"Museum"}},{"type":"Feature","geometry":{"type":"Point","coordinates":[8.920259999999999,-0.7748]},"properties":{"name":"Flip City"}},{"type":"Feature","geometry":{"type":"Point","coordinates":[8.64208,-2.267]},"properties":{"name":"Similo"}},{"type":"Feature","geometry":{"type":"Point","coordinates":[9.75602,-2.6971]},"properties":{"name":"Dinosaur World"}},{"type":"Feature","geometry":{"type":"Point","coordinates":[10.22308,-1.8702]},"properties":{"name":"The Artemis Project"}},{"type":"Feature","geometry":{"type":"Point","coordinates":[9.30615,-2.7099]},"properties":{"name":"Creature Comforts"}},{"type":"Feature","geometry":{"type":"Point","coordinates":[9.42562,-1.984]},"properties":{"name":"Yukon Airways"}},{"type":"Feature","geometry":{"type":"Point","coordinates":[9.05307,-1.5346000000000002]},"properties":{"name":"Explorers of the North Sea"}},{"type":"Feature","geometry":{"type":"Point","coordinates":[10.11765,-1.4381]},"properties":{"name":"Egizia: Shifting Sands"}},{"type":"Feature","geometry":{"type":"Point","coordinates":[8.56274,-1.8338999999999999]},"properties":{"name":"Spirits of the Forest"}},{"type":"Feature","geometry":{"type":"Point","coordinates":[9.88912,-1.4779]},"properties":{"name":"Wasteland Express Delivery Service"}},{"type":"Feature","geometry":{"type":"Point","coordinates":[8.75018,-1.4874]},"properties":{"name":"Piepmatz"}},{"type":"Feature","geometry":{"type":"Point","coordinates":[10.36941,-1.4959]},"properties":{"name":"El Grande Big Box"}},{"type":"Feature","geometry":{"type":"Point","coordinates":[8.60404,-1.9037]},"properties":{"name":"Menara"}},{"type":"Feature","geometry":{"type":"Point","coordinates":[8.67556,-1.9687999999999999]},"properties":{"name":"The Shipwreck Arcana"}},{"type":"Feature","geometry":{"type":"Point","coordinates":[8.93334,-0.8703]},"properties":{"name":"Capital Lux"}},{"type":"Feature","geometry":{"type":"Point","coordinates":[9.46204,-2.6860000000000004]},"properties":{"name":"Beer & Bread"}},{"type":"Feature","geometry":{"type":"Point","coordinates":[9.29851,-2.5134]},"properties":{"name":"Cafe"}},{"type":"Feature","geometry":{"type":"Point","coordinates":[8.98666,-1.3815]},"properties":{"name":"Fertility"}},{"type":"Feature","geometry":{"type":"Point","coordinates":[10.19805,-0.9351999999999999]},"properties":{"name":"Valparaiso"}},{"type":"Feature","geometry":{"type":"Point","coordinates":[10.12215,-0.40340000000000004]},"properties":{"name":"Spirits of the Rice Paddy"}},{"type":"Feature","geometry":{"type":"Point","coordinates":[9.49012,-0.48210000000000003]},"properties":{"name":"New Bedford"}},{"type":"Feature","geometry":{"type":"Point","coordinates":[10.20625,-0.5882000000000001]},"properties":{"name":"Loot Island"}},{"type":"Feature","geometry":{"type":"Point","coordinates":[9.55297,-0.4986]},"properties":{"name":"City of Spies: Estoril 1942"}},{"type":"Feature","geometry":{"type":"Point","coordinates":[9.54412,-0.3417]},"properties":{"name":"Bohemian Villages"}},{"type":"Feature","geometry":{"type":"Point","coordinates":[9.55845,-1.795]},"properties":{"name":"Pharaon"}},{"type":"Feature","geometry":{"type":"Point","coordinates":[9.8042,-0.5783]},"properties":{"name":"Carson City: The Card Game"}},{"type":"Feature","geometry":{"type":"Point","coordinates":[10.231720000000001,-0.3368]},"properties":{"name":"Simurgh"}},{"type":"Feature","geometry":{"type":"Point","coordinates":[10.30067,-1.5467]},"properties":{"name":"Alubari: A Nice Cup of Tea"}},{"type":"Feature","geometry":{"type":"Point","coordinates":[9.24149,-0.5708]},"properties":{"name":"Covert"}},{"type":"Feature","geometry":{"type":"Point","coordinates":[8.84144,-0.7312000000000001]},"properties":{"name":"Avenue"}},{"type":"Feature","geometry":{"type":"Point","coordinates":[9.94679,-0.2633]},"properties":{"name":"Antarctica"}},{"type":"Feature","geometry":{"type":"Point","coordinates":[8.59764,-1.9842]},"properties":{"name":"Chakra"}},{"type":"Feature","geometry":{"type":"Point","coordinates":[9.0139,-0.6262]},"properties":{"name":"OctoDice"}},{"type":"Feature","geometry":{"type":"Point","coordinates":[10.40139,-1.4765000000000001]},"properties":{"name":"Neta-Tanka: Deluxe Edition"}},{"type":"Feature","geometry":{"type":"Point","coordinates":[8.11335,-2.2995]},"properties":{"name":"Claim 2"}},{"type":"Feature","geometry":{"type":"Point","coordinates":[8.368970000000001,-2.0632]},"properties":{"name":"Clever 4Ever"}},{"type":"Feature","geometry":{"type":"Point","coordinates":[8.60071,-2.1268000000000002]},"properties":{"name":"Welcome to New Las Vegas"}},{"type":"Feature","geometry":{"type":"Point","coordinates":[8.4116,-1.6702000000000001]},"properties":{"name":"Divvy Dice"}},{"type":"Feature","geometry":{"type":"Point","coordinates":[8.864930000000001,-2.7714]},"properties":{"name":"MicroMacro: Crime City - Full House"}},{"type":"Feature","geometry":{"type":"Point","coordinates":[8.33837,-1.9313]},"properties":{"name":"Kingdomino Duel"}},{"type":"Feature","geometry":{"type":"Point","coordinates":[8.32448,-1.7205000000000001]},"properties":{"name":"Patchwork Doodle"}},{"type":"Feature","geometry":{"type":"Point","coordinates":[8.4101,-1.9259]},"properties":{"name":"Trapwords"}},{"type":"Feature","geometry":{"type":"Point","coordinates":[10.4322,-2.1203]},"properties":{"name":"John Company: Second Edition"}},{"type":"Feature","geometry":{"type":"Point","coordinates":[9.99407,-0.3797]},"properties":{"name":"North American Railways"}},{"type":"Feature","geometry":{"type":"Point","coordinates":[9.13569,-0.4853]},"properties":{"name":"Relic Runners"}},{"type":"Feature","geometry":{"type":"Point","coordinates":[9.57386,-0.40369999999999995]},"properties":{"name":"Kingsport Festival"}},{"type":"Feature","geometry":{"type":"Point","coordinates":[9.471820000000001,-0.3831]},"properties":{"name":"Subdivision"}},{"type":"Feature","geometry":{"type":"Point","coordinates":[10.556479999999999,-1.6496000000000002]},"properties":{"name":"Horseless Carriage"}},{"type":"Feature","geometry":{"type":"Point","coordinates":[9.40396,-0.7859]},"properties":{"name":"Northern Pacific"}},{"type":"Feature","geometry":{"type":"Point","coordinates":[10.31167,-0.4805]},"properties":{"name":"Wallenstein (Second Edition)"}},{"type":"Feature","geometry":{"type":"Point","coordinates":[10.5791,-2.0332]},"properties":{"name":"Trickerion: Collector's Edition"}},{"type":"Feature","geometry":{"type":"Point","coordinates":[10.44408,-2.3503]},"properties":{"name":"Perseverance: Castaway Chronicles - Episodes 1 & 2"}},{"type":"Feature","geometry":{"type":"Point","coordinates":[10.35422,-2.3753]},"properties":{"name":"Great Western Trail: New Zealand"}},{"type":"Feature","geometry":{"type":"Point","coordinates":[10.40948,-2.3015]},"properties":{"name":"Age of Innovation"}},{"type":"Feature","geometry":{"type":"Point","coordinates":[10.08273,-2.5593]},"properties":{"name":"Suburbia: Collector's Edition"}},{"type":"Feature","geometry":{"type":"Point","coordinates":[10.312570000000001,-2.0405]},"properties":{"name":"Tinners' Trail"}},{"type":"Feature","geometry":{"type":"Point","coordinates":[7.9665300000000006,-1.1111]},"properties":{"name":"Penny Papers Adventures: The Valley of Wiraqocha"}},{"type":"Feature","geometry":{"type":"Point","coordinates":[7.976369999999999,-1.057]},"properties":{"name":"Penny Papers Adventures: The Temple of Apikhabou"}},{"type":"Feature","geometry":{"type":"Point","coordinates":[8.25011,-1.1543]},"properties":{"name":"Wurfelland"}},{"type":"Feature","geometry":{"type":"Point","coordinates":[8.36311,-1.0083]},"properties":{"name":"Twenty One"}},{"type":"Feature","geometry":{"type":"Point","coordinates":[8.56547,-0.7166]},"properties":{"name":"Traxx"}},{"type":"Feature","geometry":{"type":"Point","coordinates":[8.40914,-1.276]},"properties":{"name":"Brikks"}},{"type":"Feature","geometry":{"type":"Point","coordinates":[8.20192,-1.3014]},"properties":{"name":"HexRoller"}},{"type":"Feature","geometry":{"type":"Point","coordinates":[7.98703,-0.8359000000000001]},"properties":{"name":"Gravity Superstar"}},{"type":"Feature","geometry":{"type":"Point","coordinates":[8.88861,-2.3044]},"properties":{"name":"Llamaland"}},{"type":"Feature","geometry":{"type":"Point","coordinates":[9.90157,-2.3285]},"properties":{"name":"Curious Cargo"}},{"type":"Feature","geometry":{"type":"Point","coordinates":[10.1439,-2.3222]},"properties":{"name":"Cryo"}},{"type":"Feature","geometry":{"type":"Point","coordinates":[8.911620000000001,-2.3602000000000003]},"properties":{"name":"Mandala Stones"}},{"type":"Feature","geometry":{"type":"Point","coordinates":[9.72633,-2.779]},"properties":{"name":"The Wolves"}},{"type":"Feature","geometry":{"type":"Point","coordinates":[9.71762,-2.6327]},"properties":{"name":"Genotype: A Mendelian Genetics Game"}},{"type":"Feature","geometry":{"type":"Point","coordinates":[10.47034,-1.9536000000000002]},"properties":{"name":"Rocketmen"}},{"type":"Feature","geometry":{"type":"Point","coordinates":[10.2324,-2.7352]},"properties":{"name":"Black Rose Wars"}},{"type":"Feature","geometry":{"type":"Point","coordinates":[9.87098,-1.5193]},"properties":{"name":"Petrichor"}},{"type":"Feature","geometry":{"type":"Point","coordinates":[8.67288,-1.6961000000000002]},"properties":{"name":"Miyabi"}},{"type":"Feature","geometry":{"type":"Point","coordinates":[9.91008,-2.6795]},"properties":{"name":"A War of Whispers"}},{"type":"Feature","geometry":{"type":"Point","coordinates":[10.492809999999999,-2.0139]},"properties":{"name":"Yedo: Deluxe Master Set"}},{"type":"Feature","geometry":{"type":"Point","coordinates":[8.17885,-2.0302000000000002]},"properties":{"name":"Voll verplant"}},{"type":"Feature","geometry":{"type":"Point","coordinates":[8.48933,-2.6211]},"properties":{"name":"My City: Roll & Build"}},{"type":"Feature","geometry":{"type":"Point","coordinates":[9.31139,-0.7345]},"properties":{"name":"Pioneers"}},{"type":"Feature","geometry":{"type":"Point","coordinates":[9.43286,-0.2658]},"properties":{"name":"Via Appia"}},{"type":"Feature","geometry":{"type":"Point","coordinates":[10.52675,-2.1725]},"properties":{"name":"Excavation Earth"}},{"type":"Feature","geometry":{"type":"Point","coordinates":[10.52431,-1.9499000000000002]},"properties":{"name":"Founders of Teotihuacan"}},{"type":"Feature","geometry":{"type":"Point","coordinates":[10.4804,-2.0825]},"properties":{"name":"Hippocrates"}},{"type":"Feature","geometry":{"type":"Point","coordinates":[10.36477,-1.9406]},"properties":{"name":"Dominations: Road to Civilization"}},{"type":"Feature","geometry":{"type":"Point","coordinates":[10.45536,-1.868]},"properties":{"name":"Rome & Roll"}},{"type":"Feature","geometry":{"type":"Point","coordinates":[10.38665,-2.4426]},"properties":{"name":"Oak"}},{"type":"Feature","geometry":{"type":"Point","coordinates":[9.66453,-2.8206]},"properties":{"name":"Pendulum"}},{"type":"Feature","geometry":{"type":"Point","coordinates":[10.43107,-2.2184]},"properties":{"name":"Discordia"}},{"type":"Feature","geometry":{"type":"Point","coordinates":[10.1823,-1.0112]},"properties":{"name":"Foothills"}},{"type":"Feature","geometry":{"type":"Point","coordinates":[9.71936,-0.42460000000000003]},"properties":{"name":"Race to the New Found Land"}},{"type":"Feature","geometry":{"type":"Point","coordinates":[10.52373,-0.7879]},"properties":{"name":"Captains of the Gulf"}},{"type":"Feature","geometry":{"type":"Point","coordinates":[9.92004,-0.47240000000000004]},"properties":{"name":"Minerva"}},{"type":"Feature","geometry":{"type":"Point","coordinates":[10.3476,-2.1653000000000002]},"properties":{"name":"Sabika"}},{"type":"Feature","geometry":{"type":"Point","coordinates":[9.9987,-0.4526]},"properties":{"name":"Reworld"}},{"type":"Feature","geometry":{"type":"Point","coordinates":[10.20804,-1.5684]},"properties":{"name":"Ride the Rails"}},{"type":"Feature","geometry":{"type":"Point","coordinates":[10.47366,-0.8767]},"properties":{"name":"Pixie Queen"}},{"type":"Feature","geometry":{"type":"Point","coordinates":[10.26501,-0.6108]},"properties":{"name":"Carthago: Merchants & Guilds"}},{"type":"Feature","geometry":{"type":"Point","coordinates":[8.78091,-0.7925]},"properties":{"name":"Glux"}},{"type":"Feature","geometry":{"type":"Point","coordinates":[8.89857,-1.3659000000000001]},"properties":{"name":"Fast Sloths"}},{"type":"Feature","geometry":{"type":"Point","coordinates":[9.674900000000001,-0.2753]},"properties":{"name":"Grog Island"}},{"type":"Feature","geometry":{"type":"Point","coordinates":[8.55565,-0.7903]},"properties":{"name":"Fast Forward: FEAR"}},{"type":"Feature","geometry":{"type":"Point","coordinates":[8.4838,-0.8269]},"properties":{"name":"Fast Forward: FORTRESS"}},{"type":"Feature","geometry":{"type":"Point","coordinates":[8.83548,-0.4523]},"properties":{"name":"Doodle City"}},{"type":"Feature","geometry":{"type":"Point","coordinates":[8.7665,-0.6844]},"properties":{"name":"Game of Trains"}},{"type":"Feature","geometry":{"type":"Point","coordinates":[10.2158,-2.4735]},"properties":{"name":"Barcelona"}},{"type":"Feature","geometry":{"type":"Point","coordinates":[9.56155,-2.6797000000000004]},"properties":{"name":"Tribes of the Wind"}},{"type":"Feature","geometry":{"type":"Point","coordinates":[9.88242,-2.7721]},"properties":{"name":"Starship Captains"}},{"type":"Feature","geometry":{"type":"Point","coordinates":[9.260629999999999,-2.7714]},"properties":{"name":"Forest Shuffle"}},{"type":"Feature","geometry":{"type":"Point","coordinates":[9.837250000000001,-2.69]},"properties":{"name":"Twilight Inscription"}},{"type":"Feature","geometry":{"type":"Point","coordinates":[10.156509999999999,-2.6302999999999996]},"properties":{"name":"Hamlet: The Village Building Game"}},{"type":"Feature","geometry":{"type":"Point","coordinates":[10.27209,-1.6243]},"properties":{"name":"Monasterium"}},{"type":"Feature","geometry":{"type":"Point","coordinates":[8.88378,-2.1532]},"properties":{"name":"Sagani"}},{"type":"Feature","geometry":{"type":"Point","coordinates":[10.32958,-2.6933999999999996]},"properties":{"name":"Evacuation"}},{"type":"Feature","geometry":{"type":"Point","coordinates":[8.77045,-2.688]},"properties":{"name":"Dorfromantik: The Board Game"}},{"type":"Feature","geometry":{"type":"Point","coordinates":[9.37489,-2.8431]},"properties":{"name":"The Great Split"}},{"type":"Feature","geometry":{"type":"Point","coordinates":[9.56464,-2.8187]},"properties":{"name":"Terra Nova"}},{"type":"Feature","geometry":{"type":"Point","coordinates":[9.611559999999999,-2.6219]},"properties":{"name":"Joan of Arc: Orleans Draw & Write"}},{"type":"Feature","geometry":{"type":"Point","coordinates":[9.42882,-2.7718000000000003]},"properties":{"name":"Brew"}},{"type":"Feature","geometry":{"type":"Point","coordinates":[10.441320000000001,-2.5115]},"properties":{"name":"Voidfall"}},{"type":"Feature","geometry":{"type":"Point","coordinates":[8.933250000000001,-2.7272000000000003]},"properties":{"name":"Canopy"}},{"type":"Feature","geometry":{"type":"Point","coordinates":[10.26423,-2.6082]},"properties":{"name":"Bot Factory"}},{"type":"Feature","geometry":{"type":"Point","coordinates":[8.99833,-1.7982]},"properties":{"name":"Glasgow"}},{"type":"Feature","geometry":{"type":"Point","coordinates":[9.65343,-2.6083]},"properties":{"name":"LUNA Capital"}},{"type":"Feature","geometry":{"type":"Point","coordinates":[8.46444,-2.5553]},"properties":{"name":"Top Ten"}},{"type":"Feature","geometry":{"type":"Point","coordinates":[8.80996,-2.7215]},"properties":{"name":"Riftforce"}},{"type":"Feature","geometry":{"type":"Point","coordinates":[9.271180000000001,-2.9953]},"properties":{"name":"Dog Park"}},{"type":"Feature","geometry":{"type":"Point","coordinates":[8.94395,-2.9473000000000003]},"properties":{"name":"Feed the Kraken"}},{"type":"Feature","geometry":{"type":"Point","coordinates":[8.61023,-2.4034999999999997]},"properties":{"name":"Spicy"}},{"type":"Feature","geometry":{"type":"Point","coordinates":[9.52732,-2.8937]},"properties":{"name":"The Hunger"}},{"type":"Feature","geometry":{"type":"Point","coordinates":[10.5028,-2.4358]},"properties":{"name":"Ierusalem: Anno Domini"}},{"type":"Feature","geometry":{"type":"Point","coordinates":[8.71309,-2.5171]},"properties":{"name":"Sobek: 2 Players"}},{"type":"Feature","geometry":{"type":"Point","coordinates":[10.625060000000001,-2.3361]},"properties":{"name":"Darwin's Journey: Collector's Edition"}},{"type":"Feature","geometry":{"type":"Point","coordinates":[10.38805,-2.6036]},"properties":{"name":"Bamboo"}},{"type":"Feature","geometry":{"type":"Point","coordinates":[9.53095,-0.4457]},"properties":{"name":"Shipwrights of the North Sea"}},{"type":"Feature","geometry":{"type":"Point","coordinates":[8.865359999999999,-2.2392]},"properties":{"name":"Iwari"}},{"type":"Feature","geometry":{"type":"Point","coordinates":[10.11459,-1.9165999999999999]},"properties":{"name":"Age of Civilization"}},{"type":"Feature","geometry":{"type":"Point","coordinates":[8.55885,-1.1159000000000001]},"properties":{"name":"Unusual Suspects"}},{"type":"Feature","geometry":{"type":"Point","coordinates":[8.69029,-1.2153]},"properties":{"name":"Fuji"}},{"type":"Feature","geometry":{"type":"Point","coordinates":[8.528970000000001,-1.9491]},"properties":{"name":"Naga Raja"}},{"type":"Feature","geometry":{"type":"Point","coordinates":[8.439919999999999,-0.8774]},"properties":{"name":"Fast Forward: FLEE"}},{"type":"Feature","geometry":{"type":"Point","coordinates":[8.63961,-0.7654000000000001]},"properties":{"name":"Fine Sand"}},{"type":"Feature","geometry":{"type":"Point","coordinates":[8.3444,-1.6015000000000001]},"properties":{"name":"Memoarrr!"}},{"type":"Feature","geometry":{"type":"Point","coordinates":[8.69416,-0.6607999999999999]},"properties":{"name":"Dimension"}},{"type":"Feature","geometry":{"type":"Point","coordinates":[8.4754,-0.9787]},"properties":{"name":"Rolling America"}},{"type":"Feature","geometry":{"type":"Point","coordinates":[8.873529999999999,-0.5216]},"properties":{"name":"Longhorn"}},{"type":"Feature","geometry":{"type":"Point","coordinates":[8.92514,-0.48100000000000004]},"properties":{"name":"Pandemic: Contagion"}},{"type":"Feature","geometry":{"type":"Point","coordinates":[9.02938,-0.45530000000000004]},"properties":{"name":"Asante"}},{"type":"Feature","geometry":{"type":"Point","coordinates":[8.55363,-1.0497]},"properties":{"name":"Lotus"}},{"type":"Feature","geometry":{"type":"Point","coordinates":[8.68464,-0.8629000000000001]},"properties":{"name":"Dice Stars"}},{"type":"Feature","geometry":{"type":"Point","coordinates":[9.39849,-0.361]},"properties":{"name":"Compounded"}},{"type":"Feature","geometry":{"type":"Point","coordinates":[8.57641,-2.9391000000000003]},"properties":{"name":"Railroad Ink Challenge: Shining Yellow Edition"}},{"type":"Feature","geometry":{"type":"Point","coordinates":[8.762509999999999,-2.8219]},"properties":{"name":"Railroad Ink Challenge: Lush Green Edition"}},{"type":"Feature","geometry":{"type":"Point","coordinates":[9.14756,-0.5544]},"properties":{"name":"Quests of Valeria"}},{"type":"Feature","geometry":{"type":"Point","coordinates":[9.064869999999999,-0.4132]},"properties":{"name":"The Manhattan Project: Chain Reaction"}},{"type":"Feature","geometry":{"type":"Point","coordinates":[8.74126,-0.7469]},"properties":{"name":"Tiny Epic Western"}},{"type":"Feature","geometry":{"type":"Point","coordinates":[9.01333,-0.3489]},"properties":{"name":"King's Forge"}},{"type":"Feature","geometry":{"type":"Point","coordinates":[8.761040000000001,-0.3958]},"properties":{"name":"Thief's Market"}},{"type":"Feature","geometry":{"type":"Point","coordinates":[8.9089,-0.1656]},"properties":{"name":"Valley of the Kings: Last Rites"}},{"type":"Feature","geometry":{"type":"Point","coordinates":[9.05565,-0.3432]},"properties":{"name":"Valley of the Kings: Afterlife"}},{"type":"Feature","geometry":{"type":"Point","coordinates":[9.291319999999999,-0.36479999999999996]},"properties":{"name":"Trains: Rising Sun"}},{"type":"Feature","geometry":{"type":"Point","coordinates":[9.985,-2.6652]},"properties":{"name":"Tidal Blades: Heroes of the Reef"}},{"type":"Feature","geometry":{"type":"Point","coordinates":[8.97569,-3.3125]},"properties":{"name":"Deep Dive"}},{"type":"Feature","geometry":{"type":"Point","coordinates":[9.21778,-3.529]},"properties":{"name":"Shake That City"}},{"type":"Feature","geometry":{"type":"Point","coordinates":[8.44334,-2.8813999999999997]},"properties":{"name":"Green Team Wins"}},{"type":"Feature","geometry":{"type":"Point","coordinates":[8.9698,-2.9718]},"properties":{"name":"Marvel: Remix"}},{"type":"Feature","geometry":{"type":"Point","coordinates":[8.50283,-2.741]},"properties":{"name":"Fun Facts"}},{"type":"Feature","geometry":{"type":"Point","coordinates":[9.13662,-3.1163]},"properties":{"name":"Motor City"}},{"type":"Feature","geometry":{"type":"Point","coordinates":[8.86448,-0.6705]},"properties":{"name":"Limes"}},{"type":"Feature","geometry":{"type":"Point","coordinates":[8.48455,-1.9222]},"properties":{"name":"Men at Work"}},{"type":"Feature","geometry":{"type":"Point","coordinates":[10.08951,-2.4452000000000003]},"properties":{"name":"Istanbul: Big Box"}},{"type":"Feature","geometry":{"type":"Point","coordinates":[8.37395,-1.4122]},"properties":{"name":"Nine Tiles Panic"}},{"type":"Feature","geometry":{"type":"Point","coordinates":[8.7894,-0.929]},"properties":{"name":"Holmes: Sherlock & Mycroft"}},{"type":"Feature","geometry":{"type":"Point","coordinates":[8.74638,-1.2752]},"properties":{"name":"Spring Meadow"}},{"type":"Feature","geometry":{"type":"Point","coordinates":[9.26928,-0.43560000000000004]},"properties":{"name":"Voluspa"}},{"type":"Feature","geometry":{"type":"Point","coordinates":[9.06056,-0.5118]},"properties":{"name":"VivaJava: The Coffee Game: The Dice Game"}},{"type":"Feature","geometry":{"type":"Point","coordinates":[9.35014,-0.3232]},"properties":{"name":"Madame Ching"}},{"type":"Feature","geometry":{"type":"Point","coordinates":[9.10797,-0.3709]},"properties":{"name":"Pagoda"}},{"type":"Feature","geometry":{"type":"Point","coordinates":[10.583820000000001,-1.8028]},"properties":{"name":"Mini Express"}},{"type":"Feature","geometry":{"type":"Point","coordinates":[9.11191,-1.0487]},"properties":{"name":"Bear Raid"}},{"type":"Feature","geometry":{"type":"Point","coordinates":[10.0525,-1.4311]},"properties":{"name":"On the Underground: London/Berlin"}},{"type":"Feature","geometry":{"type":"Point","coordinates":[9.34757,-1.3403]},"properties":{"name":"Free Ride"}},{"type":"Feature","geometry":{"type":"Point","coordinates":[10.18464,-0.6462]},"properties":{"name":"TOKYO METRO"}},{"type":"Feature","geometry":{"type":"Point","coordinates":[9.80346,-0.28350000000000003]},"properties":{"name":"Theseus: The Dark Orbit"}},{"type":"Feature","geometry":{"type":"Point","coordinates":[9.93324,-0.3461]},"properties":{"name":"The Cave"}},{"type":"Feature","geometry":{"type":"Point","coordinates":[9.424900000000001,-0.1744]},"properties":{"name":"Guildhall: Job Faire"}},{"type":"Feature","geometry":{"type":"Point","coordinates":[9.333210000000001,-3.2358]},"properties":{"name":"Marvel United: X-Men"}},{"type":"Feature","geometry":{"type":"Point","coordinates":[9.444600000000001,-3.1612999999999998]},"properties":{"name":"Marvel Dice Throne"}},{"type":"Feature","geometry":{"type":"Point","coordinates":[9.46152,-3.4541000000000004]},"properties":{"name":"Star Wars: The Clone Wars"}},{"type":"Feature","geometry":{"type":"Point","coordinates":[8.68332,-2.7913]},"properties":{"name":"Infinity Gauntlet: A Love Letter Game"}},{"type":"Feature","geometry":{"type":"Point","coordinates":[8.66717,-2.5922]},"properties":{"name":"Stella: Dixit Universe"}},{"type":"Feature","geometry":{"type":"Point","coordinates":[8.404869999999999,-2.1469]},"properties":{"name":"Trio"}},{"type":"Feature","geometry":{"type":"Point","coordinates":[9.46217,-2.8761]},"properties":{"name":"Blood on the Clocktower"}},{"type":"Feature","geometry":{"type":"Point","coordinates":[8.63814,-2.7157999999999998]},"properties":{"name":"Shamans"}},{"type":"Feature","geometry":{"type":"Point","coordinates":[8.5465,-2.5624000000000002]},"properties":{"name":"The Fox in the Forest Duet"}},{"type":"Feature","geometry":{"type":"Point","coordinates":[9.00607,-2.9118]},"properties":{"name":"Galaxy Trucker (Second Edition)"}},{"type":"Feature","geometry":{"type":"Point","coordinates":[9.18148,-3.1562]},"properties":{"name":"Thunder Road: Vendetta"}},{"type":"Feature","geometry":{"type":"Point","coordinates":[8.82514,-3.0126]},"properties":{"name":"Decorum"}},{"type":"Feature","geometry":{"type":"Point","coordinates":[9.67515,-3.0074]},"properties":{"name":"World Wonders"}},{"type":"Feature","geometry":{"type":"Point","coordinates":[8.21233,-2.1784]},"properties":{"name":"Medium"}},{"type":"Feature","geometry":{"type":"Point","coordinates":[8.83901,-2.8405]},"properties":{"name":"Trails"}},{"type":"Feature","geometry":{"type":"Point","coordinates":[8.68956,-2.7558999999999996]},"properties":{"name":"Whirling Witchcraft"}},{"type":"Feature","geometry":{"type":"Point","coordinates":[8.62539,-0.9337000000000001]},"properties":{"name":"Seas of Strife"}},{"type":"Feature","geometry":{"type":"Point","coordinates":[8.32788,-2.2656]},"properties":{"name":"The Chameleon"}},{"type":"Feature","geometry":{"type":"Point","coordinates":[8.881499999999999,-2.699]},"properties":{"name":"Glow"}},{"type":"Feature","geometry":{"type":"Point","coordinates":[8.80485,-2.7908]},"properties":{"name":"Mysterium Park"}},{"type":"Feature","geometry":{"type":"Point","coordinates":[9.29773,-0.5593]},"properties":{"name":"The Palace of Mad King Ludwig"}},{"type":"Feature","geometry":{"type":"Point","coordinates":[10.562429999999999,-1.5637]},"properties":{"name":"The Rise of Queensdale"}},{"type":"Feature","geometry":{"type":"Point","coordinates":[9.123899999999999,-1.3540999999999999]},"properties":{"name":"Victorian Masterminds"}},{"type":"Feature","geometry":{"type":"Point","coordinates":[8.58072,-1.2982]},"properties":{"name":"Micropolis"}},{"type":"Feature","geometry":{"type":"Point","coordinates":[10.49481,-2.6995]},"properties":{"name":"Scholars of the South Tigris"}},{"type":"Feature","geometry":{"type":"Point","coordinates":[9.99255,-2.9010000000000002]},"properties":{"name":"My Father's Work"}},{"type":"Feature","geometry":{"type":"Point","coordinates":[10.55087,-2.6713999999999998]},"properties":{"name":"Septima"}},{"type":"Feature","geometry":{"type":"Point","coordinates":[10.38253,-2.8383999999999996]},"properties":{"name":"Frostpunk: The Board Game"}},{"type":"Feature","geometry":{"type":"Point","coordinates":[10.07863,-3.016]},"properties":{"name":"Nemesis: Lockdown"}},{"type":"Feature","geometry":{"type":"Point","coordinates":[9.653410000000001,-0.1551]},"properties":{"name":"Uchronia"}},{"type":"Feature","geometry":{"type":"Point","coordinates":[8.693859999999999,-2.681]},"properties":{"name":"Kingdomino Origins"}},{"type":"Feature","geometry":{"type":"Point","coordinates":[8.722480000000001,-2.8350999999999997]},"properties":{"name":"The Isle of Cats: Explore & Draw"}},{"type":"Feature","geometry":{"type":"Point","coordinates":[9.77326,-3.0479000000000003]},"properties":{"name":"Return to Dark Tower"}},{"type":"Feature","geometry":{"type":"Point","coordinates":[9.09015,-3.2081999999999997]},"properties":{"name":"Keep the Heroes Out!"}},{"type":"Feature","geometry":{"type":"Point","coordinates":[8.29758,-2.4200999999999997]},"properties":{"name":"Smart10"}},{"type":"Feature","geometry":{"type":"Point","coordinates":[8.60605,-2.5553]},"properties":{"name":"Dungeons, Dice & Danger"}},{"type":"Feature","geometry":{"type":"Point","coordinates":[9.514009999999999,-3.1025]},"properties":{"name":"Rolling Heights"}},{"type":"Feature","geometry":{"type":"Point","coordinates":[9.597140000000001,-0.11380000000000001]},"properties":{"name":"Thebes: The Tomb Raiders"}},{"type":"Feature","geometry":{"type":"Point","coordinates":[10.21967,-1.6862000000000001]},"properties":{"name":"Iberian Gauge"}},{"type":"Feature","geometry":{"type":"Point","coordinates":[8.460890000000001,-1.1832]},"properties":{"name":"Kokoro: Avenue of the Kodama"}},{"type":"Feature","geometry":{"type":"Point","coordinates":[8.35592,-1.2486]},"properties":{"name":"Megaland"}},{"type":"Feature","geometry":{"type":"Point","coordinates":[10.09998,-2.3775]},"properties":{"name":"Red Outpost"}},{"type":"Feature","geometry":{"type":"Point","coordinates":[10.65306,-1.6537]},"properties":{"name":"Arkwright: The Card Game"}},{"type":"Feature","geometry":{"type":"Point","coordinates":[9.9661,-2.7245]},"properties":{"name":"Kemet: Blood and Sand"}},{"type":"Feature","geometry":{"type":"Point","coordinates":[9.081380000000001,-1.4546999999999999]},"properties":{"name":"Imaginarium"}},{"type":"Feature","geometry":{"type":"Point","coordinates":[10.457249999999998,-1.3722999999999999]},"properties":{"name":"Snowdonia: Deluxe Master Set"}},{"type":"Feature","geometry":{"type":"Point","coordinates":[9.20006,-0.40880000000000005]},"properties":{"name":"Cinque Terre"}},{"type":"Feature","geometry":{"type":"Point","coordinates":[9.21842,-0.28800000000000003]},"properties":{"name":"SOS Titanic"}},{"type":"Feature","geometry":{"type":"Point","coordinates":[9.325470000000001,-0.41509999999999997]},"properties":{"name":"Isle of Trains"}},{"type":"Feature","geometry":{"type":"Point","coordinates":[8.34409,-1.3377000000000001]},"properties":{"name":"Scarabya"}},{"type":"Feature","geometry":{"type":"Point","coordinates":[9.23945,-1.7674]},"properties":{"name":"Hadara"}},{"type":"Feature","geometry":{"type":"Point","coordinates":[9.07032,-1.026]},"properties":{"name":"Dice City"}},{"type":"Feature","geometry":{"type":"Point","coordinates":[8.91451,-2.4553]},"properties":{"name":"Get on Board: New York & London"}},{"type":"Feature","geometry":{"type":"Point","coordinates":[8.73597,-1.3754]},"properties":{"name":"Qwinto"}},{"type":"Feature","geometry":{"type":"Point","coordinates":[9.20541,-1.4518]},"properties":{"name":"The Networks"}},{"type":"Feature","geometry":{"type":"Point","coordinates":[9.47523,-2.3089]},"properties":{"name":"Blitzkrieg!: World War Two in 20 Minutes"}},{"type":"Feature","geometry":{"type":"Point","coordinates":[8.65832,-2.3617]},"properties":{"name":"Trek 12: Himalaya"}},{"type":"Feature","geometry":{"type":"Point","coordinates":[9.81992,-1.4901]},"properties":{"name":"Lowlands"}},{"type":"Feature","geometry":{"type":"Point","coordinates":[9.265080000000001,-0.7944]},"properties":{"name":"Royals"}},{"type":"Feature","geometry":{"type":"Point","coordinates":[8.73352,-2]},"properties":{"name":"Carnival of Monsters"}},{"type":"Feature","geometry":{"type":"Point","coordinates":[9.14829,-2.6523000000000003]},"properties":{"name":"Rolling Realms"}},{"type":"Feature","geometry":{"type":"Point","coordinates":[8.50615,-2.247]},"properties":{"name":"Detective Club"}},{"type":"Feature","geometry":{"type":"Point","coordinates":[8.95529,-2.4038999999999997]},"properties":{"name":"Rallyman: GT"}},{"type":"Feature","geometry":{"type":"Point","coordinates":[8.42689,-2.0769]},"properties":{"name":"Pictures"}},{"type":"Feature","geometry":{"type":"Point","coordinates":[8.58976,-1.2064]},"properties":{"name":"Dr Eureka"}},{"type":"Feature","geometry":{"type":"Point","coordinates":[8.44823,-2.3967]},"properties":{"name":"Cross Clues"}},{"type":"Feature","geometry":{"type":"Point","coordinates":[10.225259999999999,-2.1574]},"properties":{"name":"Rurik: Dawn of Kiev"}},{"type":"Feature","geometry":{"type":"Point","coordinates":[8.54428,-1.7675999999999998]},"properties":{"name":"Imperial Settlers: Roll & Write"}},{"type":"Feature","geometry":{"type":"Point","coordinates":[8.825890000000001,-2.2044]},"properties":{"name":"Las Vegas Royale"}},{"type":"Feature","geometry":{"type":"Point","coordinates":[8.38175,-2.3279]},"properties":{"name":"Obscurio"}},{"type":"Feature","geometry":{"type":"Point","coordinates":[8.45293,-1.5977000000000001]},"properties":{"name":"Second Chance"}},{"type":"Feature","geometry":{"type":"Point","coordinates":[8.43129,-1.8381999999999998]},"properties":{"name":"Seikatsu"}},{"type":"Feature","geometry":{"type":"Point","coordinates":[8.59967,-2.4718]},"properties":{"name":"Botanik"}},{"type":"Feature","geometry":{"type":"Point","coordinates":[9.24089,-2.8572]},"properties":{"name":"Orichalcum"}},{"type":"Feature","geometry":{"type":"Point","coordinates":[8.94518,-0.6858]},"properties":{"name":"Terra"}},{"type":"Feature","geometry":{"type":"Point","coordinates":[10.071710000000001,-1.2484]},"properties":{"name":"Ceylon"}},{"type":"Feature","geometry":{"type":"Point","coordinates":[9.95416,-2.6126]},"properties":{"name":"Merchants of the Dark Road"}},{"type":"Feature","geometry":{"type":"Point","coordinates":[9.43502,-2.8355]},"properties":{"name":"Fallout Shelter: The Board Game"}},{"type":"Feature","geometry":{"type":"Point","coordinates":[8.37109,-1.8541999999999998]},"properties":{"name":"PUSH"}},{"type":"Feature","geometry":{"type":"Point","coordinates":[8.46425,-2.1313999999999997]},"properties":{"name":"Ticket to Ride: London"}},{"type":"Feature","geometry":{"type":"Point","coordinates":[9.08191,-2.9101]},"properties":{"name":"Splendor: Marvel"}},{"type":"Feature","geometry":{"type":"Point","coordinates":[8.497,-1.8561]},"properties":{"name":"Bosk"}},{"type":"Feature","geometry":{"type":"Point","coordinates":[8.20475,-1.7069999999999999]},"properties":{"name":"Muse"}},{"type":"Feature","geometry":{"type":"Point","coordinates":[9.708210000000001,-0.7426]},"properties":{"name":"Coal Baron: The Great Card Game"}},{"type":"Feature","geometry":{"type":"Point","coordinates":[8.24204,-1.554]},"properties":{"name":"Shadows: Amsterdam"}},{"type":"Feature","geometry":{"type":"Point","coordinates":[8.49038,-1.2965]},"properties":{"name":"Harvest Dice"}},{"type":"Feature","geometry":{"type":"Point","coordinates":[9.05203,-2.8476999999999997]},"properties":{"name":"Cartographers Heroes"}},{"type":"Feature","geometry":{"type":"Point","coordinates":[10.50157,-2.7502]},"properties":{"name":"Deal with the Devil"}},{"type":"Feature","geometry":{"type":"Point","coordinates":[9.71828,-0.853]},"properties":{"name":"The Staufer Dynasty"}},{"type":"Feature","geometry":{"type":"Point","coordinates":[9.82201,-1.0342]},"properties":{"name":"Key Flow"}},{"type":"Feature","geometry":{"type":"Point","coordinates":[9.73232,-0.6001]},"properties":{"name":"The Ancient World"}},{"type":"Feature","geometry":{"type":"Point","coordinates":[9.86302,-0.33399999999999996]},"properties":{"name":"Versailles"}},{"type":"Feature","geometry":{"type":"Point","coordinates":[9.78875,-0.7644]},"properties":{"name":"Mini Rails"}},{"type":"Feature","geometry":{"type":"Point","coordinates":[9.48333,-0.2451]},"properties":{"name":"Vienna"}},{"type":"Feature","geometry":{"type":"Point","coordinates":[10.26424,-1.4674]},"properties":{"name":"City of the Big Shoulders"}},{"type":"Feature","geometry":{"type":"Point","coordinates":[9.76747,-1.6375]},"properties":{"name":"London (Second Edition)"}},{"type":"Feature","geometry":{"type":"Point","coordinates":[9.03436,-0.5688]},"properties":{"name":"AbracadaWhat?"}},{"type":"Feature","geometry":{"type":"Point","coordinates":[9.97513,-0.5111]},"properties":{"name":"A Column of Fire"}},{"type":"Feature","geometry":{"type":"Point","coordinates":[8.9286,-1.5292]},"properties":{"name":"NMBR 9"}},{"type":"Feature","geometry":{"type":"Point","coordinates":[8.80222,-0.6325]},"properties":{"name":"Potato Man"}},{"type":"Feature","geometry":{"type":"Point","coordinates":[9.253120000000001,-0.37020000000000003]},"properties":{"name":"Parfum"}},{"type":"Feature","geometry":{"type":"Point","coordinates":[9.60933,-0.2232]},"properties":{"name":"Samara"}},{"type":"Feature","geometry":{"type":"Point","coordinates":[9.72486,-0.1261]},"properties":{"name":"Temporum"}},{"type":"Feature","geometry":{"type":"Point","coordinates":[9.65274,-1.5127000000000002]},"properties":{"name":"Kokopelli"}},{"type":"Feature","geometry":{"type":"Point","coordinates":[8.87836,-0.5922]},"properties":{"name":"Kobayakawa"}},{"type":"Feature","geometry":{"type":"Point","coordinates":[10.29621,-1.9366999999999999]},"properties":{"name":"Corrosion"}},{"type":"Feature","geometry":{"type":"Point","coordinates":[8.60791,-0.7833]},"properties":{"name":"Portal of Heroes"}},{"type":"Feature","geometry":{"type":"Point","coordinates":[9.51309,-0.1267]},"properties":{"name":"Maharani"}},{"type":"Feature","geometry":{"type":"Point","coordinates":[10.14181,-0.34119999999999995]},"properties":{"name":"Florenza: The Card Game"}},{"type":"Feature","geometry":{"type":"Point","coordinates":[9.42975,-0.0785]},"properties":{"name":"Sultaniya"}},{"type":"Feature","geometry":{"type":"Point","coordinates":[9.77451,-0.1672]},"properties":{"name":"Waggle Dance"}},{"type":"Feature","geometry":{"type":"Point","coordinates":[9.10601,-0.6136]},"properties":{"name":"Joraku"}},{"type":"Feature","geometry":{"type":"Point","coordinates":[9.19239,-0.5778]},"properties":{"name":"Fresh Fish"}},