{"type":"FeatureCollection","features":[{"type":"Feature","geometry":{"type":"Point","coordinates":[9.945,5.73]},"properties":{"label":"Mountain Goats","size":22.622,"ratings":"6.82761","complexity":"1.1463","id":63975,"parent":0}},{"type":"Feature","geometry":{"type":"Point","coordinates":[11.867,6.5]},"properties":{"label":"Sequoia","size":20.972,"ratings":"6.64442","complexity":"1.1765","id":305986,"parent":0}},{"type":"Feature","geometry":{"type":"Point","coordinates":[11.84,5.9]},"properties":{"label":"GPS","size":20.595,"ratings":"5.30635","complexity":"1.1111","id":305984,"parent":0}},{"type":"Feature","geometry":{"type":"Point","coordinates":[11.063,7.29]},"properties":{"label":"Bites","size":21.545,"ratings":"7.13584","complexity":"1.4688","id":277927,"parent":0}},{"type":"Feature","geometry":{"type":"Point","coordinates":[9.879,6.45]},"properties":{"label":"On Tour","size":24.856,"ratings":"6.93357","complexity":"1.45","id":251412,"parent":0}},{"type":"Feature","geometry":{"type":"Point","coordinates":[11.607,5.93]},"properties":{"label":"Kabuto Sumo","size":22.345,"ratings":"6.79614","complexity":"1.225","id":320390,"parent":0}},{"type":"Feature","geometry":{"type":"Point","coordinates":[10.294,5.67]},"properties":{"label":"Super Mega Lucky Box","size":22.283,"ratings":"7.18795","complexity":"1.2326","id":341530,"parent":0}},{"type":"Feature","geometry":{"type":"Point","coordinates":[10.186,7.09]},"properties":{"label":"QE","size":25.636,"ratings":"7.39635","complexity":"1.5377","id":266830,"parent":0}},{"type":"Feature","geometry":{"type":"Point","coordinates":[10.467,5.93]},"properties":{"label":"TEN","size":22.529,"ratings":"7.09167","complexity":"1.44","id":335609,"parent":0}},{"type":"Feature","geometry":{"type":"Point","coordinates":[11.262,8.12]},"properties":{"label":"Ghosts of Christmas","size":20.77,"ratings":"7.12068","complexity":"2.0","id":281619,"parent":0}},{"type":"Feature","geometry":{"type":"Point","coordinates":[11.044,6.55]},"properties":{"label":"Long Shot: The Dice Game","size":26.658,"ratings":"7.66958","complexity":"1.9185","id":295374,"parent":0}},{"type":"Feature","geometry":{"type":"Point","coordinates":[10.098,6.07]},"properties":{"label":"Abandon All Artichokes","size":24.652,"ratings":"6.63268","complexity":"1.2883","id":302260,"parent":0}},{"type":"Feature","geometry":{"type":"Point","coordinates":[10.377,6.07]},"properties":{"label":"Juicy Fruits","size":22.2,"ratings":"7.05032","complexity":"2.0172","id":325698,"parent":0}},{"type":"Feature","geometry":{"type":"Point","coordinates":[8.674,7]},"properties":{"label":"Habitats","size":21.923000000000002,"ratings":"7.37501","complexity":"2.1667","id":200853,"parent":0}},{"type":"Feature","geometry":{"type":"Point","coordinates":[11.042,6.86]},"properties":{"label":"Cat in the Box: Deluxe Edition","size":26.299,"ratings":"7.62257","complexity":"1.9623","id":345972,"parent":0}},{"type":"Feature","geometry":{"type":"Point","coordinates":[11.064,6.41]},"properties":{"label":"Verdant","size":24.233,"ratings":"7.39321","complexity":"2.0849","id":334065,"parent":0}},{"type":"Feature","geometry":{"type":"Point","coordinates":[11.49,5.84]},"properties":{"label":"Dice Miner","size":21.891,"ratings":"7.28708","complexity":"1.6757","id":310632,"parent":0}},{"type":"Feature","geometry":{"type":"Point","coordinates":[11.411,6.55]},"properties":{"label":"Ready Set Bet","size":23.813,"ratings":"7.63633","complexity":"1.2623","id":351040,"parent":0}},{"type":"Feature","geometry":{"type":"Point","coordinates":[10.766,5.44]},"properties":{"label":"Floriferous","size":21.767,"ratings":"7.52512","complexity":"1.6486","id":322622,"parent":0}},{"type":"Feature","geometry":{"type":"Point","coordinates":[9.703,6]},"properties":{"label":"Ohanami","size":23.789,"ratings":"7.29886","complexity":"1.1348","id":270314,"parent":0}},{"type":"Feature","geometry":{"type":"Point","coordinates":[9.694,6.33]},"properties":{"label":"Silver & Gold","size":27.839,"ratings":"7.21072","complexity":"1.1667","id":270673,"parent":0}},{"type":"Feature","geometry":{"type":"Point","coordinates":[10.929,5.75]},"properties":{"label":"Picture Perfect","size":21.622,"ratings":"7.02938","complexity":"1.8788","id":299963,"parent":0}},{"type":"Feature","geometry":{"type":"Point","coordinates":[9.555,6.67]},"properties":{"label":"Copenhagen","size":23.740000000000002,"ratings":"6.98755","complexity":"1.6892","id":269595,"parent":0}},{"type":"Feature","geometry":{"type":"Point","coordinates":[10.198,5.8]},"properties":{"label":"Tussie Mussie","size":24.094,"ratings":"6.94724","complexity":"1.1271","id":257614,"parent":0}},{"type":"Feature","geometry":{"type":"Point","coordinates":[10.013,7.18]},"properties":{"label":"Renature","size":22.242,"ratings":"7.1088","complexity":"2.2222","id":300001,"parent":0}},{"type":"Feature","geometry":{"type":"Point","coordinates":[10.455,6.85]},"properties":{"label":"Mille Fiori","size":23.322,"ratings":"7.43612","complexity":"2.1505","id":346501,"parent":0}},{"type":"Feature","geometry":{"type":"Point","coordinates":[11.348,5.76]},"properties":{"label":"Paint the Roses","size":22.084,"ratings":"7.24955","complexity":"2.4634","id":253759,"parent":0}},{"type":"Feature","geometry":{"type":"Point","coordinates":[10.553,5.77]},"properties":{"label":"Trekking the World","size":22.656,"ratings":"7.11402","complexity":"1.9118","id":300442,"parent":0}},{"type":"Feature","geometry":{"type":"Point","coordinates":[10.749,7.04]},"properties":{"label":"The Guild of Merchant Explorers","size":24.067999999999998,"ratings":"7.73207","complexity":"2.038","id":350933,"parent":0}},{"type":"Feature","geometry":{"type":"Point","coordinates":[10.58,6.67]},"properties":{"label":"Akropolis","size":25.929000000000002,"ratings":"7.50623","complexity":"1.7881","id":357563,"parent":0}},{"type":"Feature","geometry":{"type":"Point","coordinates":[9.774,5.88]},"properties":{"label":"Lucky Numbers","size":22.953,"ratings":"6.33884","complexity":"1.1013","id":118247,"parent":0}},{"type":"Feature","geometry":{"type":"Point","coordinates":[10.668,6.85]},"properties":{"label":"First Rat","size":22.977,"ratings":"7.61819","complexity":"2.2551","id":347703,"parent":0}},{"type":"Feature","geometry":{"type":"Point","coordinates":[10.295,6.94]},"properties":{"label":"Fantastic Factories","size":26.313,"ratings":"7.44395","complexity":"2.2143","id":216600,"parent":0}},{"type":"Feature","geometry":{"type":"Point","coordinates":[9.207,5.96]},"properties":{"label":"Metro X","size":21.8,"ratings":"7.12854","complexity":"1.7391","id":248861,"parent":0}},{"type":"Feature","geometry":{"type":"Point","coordinates":[10.828,6.9]},"properties":{"label":"Planet Unknown","size":28.291,"ratings":"7.84054","complexity":"2.2105","id":258779,"parent":0}},{"type":"Feature","geometry":{"type":"Point","coordinates":[10.551,6.34]},"properties":{"label":"So Clover!","size":27.118000000000002,"ratings":"7.59097","complexity":"1.1017","id":329839,"parent":0}},{"type":"Feature","geometry":{"type":"Point","coordinates":[11.232,5.47]},"properties":{"label":"boop","size":21.484,"ratings":"7.1713","complexity":"1.4091","id":355433,"parent":0}},{"type":"Feature","geometry":{"type":"Point","coordinates":[10.088,5.42]},"properties":{"label":"Truffle Shuffle","size":21.268,"ratings":"6.92139","complexity":"1.2963","id":298060,"parent":0}},{"type":"Feature","geometry":{"type":"Point","coordinates":[9.347,6.46]},"properties":{"label":"Illusion","size":24.667,"ratings":"6.73649","complexity":"1.0577","id":244995,"parent":0}},{"type":"Feature","geometry":{"type":"Point","coordinates":[10.686,6.51]},"properties":{"label":"Project L","size":28.637,"ratings":"7.49613","complexity":"1.5698","id":260180,"parent":0}},{"type":"Feature","geometry":{"type":"Point","coordinates":[9.394,6.26]},"properties":{"label":"Circle the Wagons","size":23.401,"ratings":"7.08259","complexity":"1.6364","id":213266,"parent":0}},{"type":"Feature","geometry":{"type":"Point","coordinates":[10.945,5.95]},"properties":{"label":"My Shelfie","size":21.547,"ratings":"6.5323","complexity":"1.4545","id":366456,"parent":0}},{"type":"Feature","geometry":{"type":"Point","coordinates":[11.564,6.16]},"properties":{"label":"Trekking Through History","size":23.215,"ratings":"7.70476","complexity":"1.7634","id":353288,"parent":0}},{"type":"Feature","geometry":{"type":"Point","coordinates":[10.227,6.65]},"properties":{"label":"Santa Monica","size":24.151,"ratings":"7.1855","complexity":"2.1417","id":298065,"parent":0}},{"type":"Feature","geometry":{"type":"Point","coordinates":[10.489,6.5]},"properties":{"label":"New York Zoo","size":27.642,"ratings":"7.09766","complexity":"1.9524","id":300877,"parent":0}},{"type":"Feature","geometry":{"type":"Point","coordinates":[11.535,5.65]},"properties":{"label":"Kites","size":21.6,"ratings":"7.03906","complexity":"1.0938","id":348096,"parent":0}},{"type":"Feature","geometry":{"type":"Point","coordinates":[11.376,6.38]},"properties":{"label":"Evergreen","size":21.933,"ratings":"7.49927","complexity":"2.0943","id":363307,"parent":0}},{"type":"Feature","geometry":{"type":"Point","coordinates":[10.325,5.32]},"properties":{"label":"Sonora","size":21.441,"ratings":"6.89644","complexity":"2.1852","id":296626,"parent":0}},{"type":"Feature","geometry":{"type":"Point","coordinates":[9.5,7.96]},"properties":{"label":"Factory Funner","size":21.576999999999998,"ratings":"7.18464","complexity":"2.3548","id":183284,"parent":0}},{"type":"Feature","geometry":{"type":"Point","coordinates":[11.997,6.25]},"properties":{"label":"Point City","size":20.997,"ratings":"7.33428","complexity":"1.6","id":368017,"parent":0}},{"type":"Feature","geometry":{"type":"Point","coordinates":[10.566,6.08]},"properties":{"label":"Next Station: London","size":23.842,"ratings":"7.47699","complexity":"1.4839","id":353545,"parent":0}},{"type":"Feature","geometry":{"type":"Point","coordinates":[11.694,6.98]},"properties":{"label":"Foundations of Rome","size":23.056,"ratings":"8.01868","complexity":"1.9681","id":284189,"parent":0}},{"type":"Feature","geometry":{"type":"Point","coordinates":[10.474,7.28]},"properties":{"label":"Furnace","size":30.031,"ratings":"7.42159","complexity":"2.2986","id":318084,"parent":0}},{"type":"Feature","geometry":{"type":"Point","coordinates":[8.605,6.33]},"properties":{"label":"Drop It","size":22.734,"ratings":"6.89377","complexity":"1.1087","id":244916,"parent":0}},{"type":"Feature","geometry":{"type":"Point","coordinates":[8.969,5.65]},"properties":{"label":"5211","size":21.683,"ratings":"6.32854","complexity":"1.2121","id":271512,"parent":0}},{"type":"Feature","geometry":{"type":"Point","coordinates":[8.652,6.64]},"properties":{"label":"Dealt!","size":21.627,"ratings":"7.07521","complexity":"1.4324","id":243430,"parent":0}},{"type":"Feature","geometry":{"type":"Point","coordinates":[9.346,6.98]},"properties":{"label":"Luxor","size":24.572,"ratings":"7.18958","complexity":"1.9044","id":245643,"parent":0}},{"type":"Feature","geometry":{"type":"Point","coordinates":[8.308,7.21]},"properties":{"label":"Fuji Flush","size":23.184,"ratings":"6.60602","complexity":"1.05","id":203430,"parent":0}},{"type":"Feature","geometry":{"type":"Point","coordinates":[8.767,6.39]},"properties":{"label":"Strike","size":23.671,"ratings":"6.93532","complexity":"1.0315","id":123570,"parent":0}},{"type":"Feature","geometry":{"type":"Point","coordinates":[9.961,6.18]},"properties":{"label":"Savannah Park","size":21.602,"ratings":"7.09346","complexity":"1.6857","id":339484,"parent":0}},{"type":"Feature","geometry":{"type":"Point","coordinates":[9.815,6.26]},"properties":{"label":"Trails of Tucana","size":24.339,"ratings":"7.40156","complexity":"1.2617","id":283864,"parent":0}},{"type":"Feature","geometry":{"type":"Point","coordinates":[9.26,7.62]},"properties":{"label":"Ginkgopolis","size":27.701999999999998,"ratings":"7.5083","complexity":"2.9059","id":128271,"parent":0}},{"type":"Feature","geometry":{"type":"Point","coordinates":[10.423,6.31]},"properties":{"label":"7 Wonders: Architects","size":29.381999999999998,"ratings":"7.04237","complexity":"1.3506","id":346703,"parent":0}},{"type":"Feature","geometry":{"type":"Point","coordinates":[7.9,7.94]},"properties":{"label":"Sanssouci","size":21.81,"ratings":"7.13642","complexity":"2.1159","id":146816,"parent":0}},{"type":"Feature","geometry":{"type":"Point","coordinates":[10.077,6.72]},"properties":{"label":"Nova Luna","size":28.012,"ratings":"7.29286","complexity":"1.8772","id":284435,"parent":0}},{"type":"Feature","geometry":{"type":"Point","coordinates":[8.52,7.29]},"properties":{"label":"Linko","size":24.97,"ratings":"6.99258","complexity":"1.3884","id":153065,"parent":0}},{"type":"Feature","geometry":{"type":"Point","coordinates":[9.374,6.78]},"properties":{"label":"Reef","size":29.433999999999997,"ratings":"7.02049","complexity":"1.8023","id":244228,"parent":0}},{"type":"Feature","geometry":{"type":"Point","coordinates":[9.565,7.44]},"properties":{"label":"Crown of Emara","size":23.696,"ratings":"7.39389","complexity":"3.0536","id":256570,"parent":0}},{"type":"Feature","geometry":{"type":"Point","coordinates":[9.653,7.21]},"properties":{"label":"The Castles of Tuscany","size":23.058,"ratings":"7.24694","complexity":"2.2198","id":300327,"parent":0}},{"type":"Feature","geometry":{"type":"Point","coordinates":[9.992,6.31]},"properties":{"label":"CuBirds","size":26.465,"ratings":"6.93085","complexity":"1.3082","id":245476,"parent":0}},{"type":"Feature","geometry":{"type":"Point","coordinates":[10.533,5.48]},"properties":{"label":"Tranquility","size":22.802,"ratings":"6.97939","complexity":"1.338","id":288513,"parent":0}},{"type":"Feature","geometry":{"type":"Point","coordinates":[9.767,7.38]},"properties":{"label":"Carpe Diem","size":27.509,"ratings":"7.51944","complexity":"2.5082","id":245934,"parent":0}},{"type":"Feature","geometry":{"type":"Point","coordinates":[9.078,6.63]},"properties":{"label":"Marrakech","size":25.017,"ratings":"6.68933","complexity":"1.35","id":29223,"parent":0}},{"type":"Feature","geometry":{"type":"Point","coordinates":[11.248,6.63]},"properties":{"label":"Turing Machine","size":25.509999999999998,"ratings":"7.75046","complexity":"2.4194","id":356123,"parent":0}},{"type":"Feature","geometry":{"type":"Point","coordinates":[8.279,6.29]},"properties":{"label":"Roll to the Top!","size":21.365,"ratings":"6.75741","complexity":"1.0","id":240225,"parent":0}},{"type":"Feature","geometry":{"type":"Point","coordinates":[9.212,6.36]},"properties":{"label":"Walking in Burano","size":22.682,"ratings":"7.11365","complexity":"2.0135","id":257769,"parent":0}},{"type":"Feature","geometry":{"type":"Point","coordinates":[8.921,7.74]},"properties":{"label":"Gold West","size":23.043,"ratings":"7.315","complexity":"2.4632","id":154086,"parent":0}},{"type":"Feature","geometry":{"type":"Point","coordinates":[10.903,6.72]},"properties":{"label":"Cubitos","size":28.131,"ratings":"7.42998","complexity":"2.1829","id":298069,"parent":0}},{"type":"Feature","geometry":{"type":"Point","coordinates":[8.273,8.2]},"properties":{"label":"Valletta","size":21.599,"ratings":"6.98253","complexity":"2.3488","id":218920,"parent":0}},{"type":"Feature","geometry":{"type":"Point","coordinates":[7.692,7.34]},"properties":{"label":"Animals on Board","size":22.151,"ratings":"6.53659","complexity":"1.5161","id":191572,"parent":0}},{"type":"Feature","geometry":{"type":"Point","coordinates":[11.606,5.83]},"properties":{"label":"Wandering Towers","size":21.736,"ratings":"7.35833","complexity":"1.625","id":355483,"parent":0}},{"type":"Feature","geometry":{"type":"Point","coordinates":[10.397,6.67]},"properties":{"label":"Azul: Queen's Garden","size":24.288,"ratings":"7.5076","complexity":"2.9444","id":346965,"parent":0}},{"type":"Feature","geometry":{"type":"Point","coordinates":[10.342,6.46]},"properties":{"label":"Living Forest","size":25.579,"ratings":"7.28007","complexity":"2.1966","id":328479,"parent":0}},{"type":"Feature","geometry":{"type":"Point","coordinates":[7.7,7.94]},"properties":{"label":"Saint Malo","size":22.347,"ratings":"6.45","complexity":"1.9","id":117960,"parent":0}},{"type":"Feature","geometry":{"type":"Point","coordinates":[6.846,7.96]},"properties":{"label":"Lost Legacy: The Starship","size":22.682,"ratings":"6.59391","complexity":"1.2696","id":158339,"parent":0}},{"type":"Feature","geometry":{"type":"Point","coordinates":[6.129,8.05]},"properties":{"label":"Lost Legacy: Flying Garden","size":21.656,"ratings":"6.69284","complexity":"1.3333","id":158340,"parent":0}},{"type":"Feature","geometry":{"type":"Point","coordinates":[6.029,8.35]},"properties":{"label":"Lost Legacy: Second Chronicle - Vorpal Sword & Whitegold Spire","size":20.7,"ratings":"6.80063","complexity":"1.2917","id":173319,"parent":0}},{"type":"Feature","geometry":{"type":"Point","coordinates":[8.037,7.67]},"properties":{"label":"Valley of the Kings","size":24.799,"ratings":"7.01539","complexity":"2.1786","id":150999,"parent":0}},{"type":"Feature","geometry":{"type":"Point","coordinates":[7.741,8.12]},"properties":{"label":"Guildhall","size":24.127,"ratings":"6.8891","complexity":"2.067","id":132372,"parent":0}},{"type":"Feature","geometry":{"type":"Point","coordinates":[5.604,8.39]},"properties":{"label":"Cypher","size":20.676,"ratings":"5.93221","complexity":"1.5","id":163354,"parent":0}},{"type":"Feature","geometry":{"type":"Point","coordinates":[6.749,7.88]},"properties":{"label":"Council of Verona","size":21.895,"ratings":"6.29061","complexity":"1.3857","id":140863,"parent":0}},{"type":"Feature","geometry":{"type":"Point","coordinates":[6.638,8.18]},"properties":{"label":"Cheaty Mages!","size":22.066,"ratings":"6.24478","complexity":"1.5905","id":38194,"parent":0}},{"type":"Feature","geometry":{"type":"Point","coordinates":[8.279,7.68]},"properties":{"label":"Viceroy","size":25.579,"ratings":"6.79285","complexity":"2.6404","id":157526,"parent":0}},{"type":"Feature","geometry":{"type":"Point","coordinates":[6.441,8.26]},"properties":{"label":"Rent a Hero","size":21.766,"ratings":"6.31363","complexity":"1.4627","id":135116,"parent":0}},{"type":"Feature","geometry":{"type":"Point","coordinates":[6.887,7.78]},"properties":{"label":"Eminent Domain: Microcosm","size":21.68,"ratings":"6.35056","complexity":"1.9747","id":163640,"parent":0}},{"type":"Feature","geometry":{"type":"Point","coordinates":[7.526,8.4]},"properties":{"label":"Greed","size":22.328,"ratings":"6.64492","complexity":"2.0091","id":151247,"parent":0}},{"type":"Feature","geometry":{"type":"Point","coordinates":[7.074,7.29]},"properties":{"label":"Pairs","size":22.298000000000002,"ratings":"6.32929","complexity":"1.1373","id":152237,"parent":0}},{"type":"Feature","geometry":{"type":"Point","coordinates":[8.453,7.69]},"properties":{"label":"Discoveries: The Journals of Lewis & Clark","size":24.886,"ratings":"7.03388","complexity":"2.3618","id":171669,"parent":0}},{"type":"Feature","geometry":{"type":"Point","coordinates":[7.959,7.2]},"properties":{"label":"Medieval Academy","size":23.97,"ratings":"6.94146","complexity":"1.811","id":154386,"parent":0}},{"type":"Feature","geometry":{"type":"Point","coordinates":[7.624,8.8]},"properties":{"label":"Impulse","size":22.14,"ratings":"6.81373","complexity":"3.0385","id":144239,"parent":0}},{"type":"Feature","geometry":{"type":"Point","coordinates":[7.741,6.94]},"properties":{"label":"Witness","size":22.685,"ratings":"7.24798","complexity":"1.5","id":164265,"parent":0}},{"type":"Feature","geometry":{"type":"Point","coordinates":[7.748,7.57]},"properties":{"label":"Artifacts, Inc","size":23.284,"ratings":"6.75508","complexity":"2.1667","id":168609,"parent":0}},{"type":"Feature","geometry":{"type":"Point","coordinates":[7.82,7.76]},"properties":{"label":"Favor of the Pharaoh","size":22.956,"ratings":"6.79574","complexity":"2.0","id":171011,"parent":0}},{"type":"Feature","geometry":{"type":"Point","coordinates":[6.404,7.76]},"properties":{"label":"Coin Age","size":21.939,"ratings":"6.00159","complexity":"1.3386","id":146130,"parent":0}},{"type":"Feature","geometry":{"type":"Point","coordinates":[5.936,7.64]},"properties":{"label":"Dragon Slayer","size":21.727,"ratings":"5.60201","complexity":"1.0795","id":158243,"parent":0}},{"type":"Feature","geometry":{"type":"Point","coordinates":[8.113,8.37]},"properties":{"label":"Legacy: The Testament of Duke de Crecy","size":24.317,"ratings":"7.13258","complexity":"2.7124","id":52461,"parent":0}},{"type":"Feature","geometry":{"type":"Point","coordinates":[8.456,8.1]},"properties":{"label":"Spyrium","size":26.266,"ratings":"7.0442","complexity":"2.8921","id":137269,"parent":0}},{"type":"Feature","geometry":{"type":"Point","coordinates":[8.733,7.75]},"properties":{"label":"La Isla","size":25.535,"ratings":"6.86629","complexity":"2.2528","id":154246,"parent":0}},{"type":"Feature","geometry":{"type":"Point","coordinates":[10.747,8.76]},"properties":{"label":"9 Lives","size":20.457,"ratings":"7.14212","complexity":"1.4286","id":189190,"parent":0}},{"type":"Feature","geometry":{"type":"Point","coordinates":[9.763,7.06]},"properties":{"label":"Century: A New World","size":24.835,"ratings":"7.32865","complexity":"2.1237","id":270970,"parent":0}},{"type":"Feature","geometry":{"type":"Point","coordinates":[9.43,7.15]},"properties":{"label":"Century: Eastern Wonders","size":27.344,"ratings":"7.12449","complexity":"2.1159","id":242574,"parent":0}},{"type":"Feature","geometry":{"type":"Point","coordinates":[9.126,7.19]},"properties":{"label":"Majesty: For the Realm","size":26.283,"ratings":"6.93721","complexity":"1.7229","id":230080,"parent":0}},{"type":"Feature","geometry":{"type":"Point","coordinates":[9.458,7.83]},"properties":{"label":"Altiplano","size":28.963,"ratings":"7.46976","complexity":"3.2967","id":234487,"parent":0}},{"type":"Feature","geometry":{"type":"Point","coordinates":[9.235,6.87]},"properties":{"label":"Dragon Castle","size":27.634999999999998,"ratings":"7.12993","complexity":"1.9716","id":232219,"parent":0}},{"type":"Feature","geometry":{"type":"Point","coordinates":[9.738,6.67]},"properties":{"label":"Twice as Clever!","size":28.674,"ratings":"7.44596","complexity":"2.2775","id":269210,"parent":0}},{"type":"Feature","geometry":{"type":"Point","coordinates":[9.453,7.57]},"properties":{"label":"Santa Maria","size":26.820999999999998,"ratings":"7.47935","complexity":"3.0386","id":229220,"parent":0}},{"type":"Feature","geometry":{"type":"Point","coordinates":[9.943,7.96]},"properties":{"label":"Blackout: Hong Kong","size":25.8,"ratings":"7.43753","complexity":"3.4809","id":262215,"parent":0}},{"type":"Feature","geometry":{"type":"Point","coordinates":[10.555,7.03]},"properties":{"label":"Aquatica","size":25.784,"ratings":"7.38116","complexity":"2.2923","id":283393,"parent":0}},{"type":"Feature","geometry":{"type":"Point","coordinates":[9.741,7.74]},"properties":{"label":"Pulsar 2849","size":28.647,"ratings":"7.66859","complexity":"3.3534","id":228341,"parent":0}},{"type":"Feature","geometry":{"type":"Point","coordinates":[10.468,8.18]},"properties":{"label":"Tekhenu: Obelisk of the Sun","size":25.602,"ratings":"7.7214","complexity":"4.0649","id":297030,"parent":0}},{"type":"Feature","geometry":{"type":"Point","coordinates":[9.983,6.87]},"properties":{"label":"Dice Hospital","size":26.22,"ratings":"7.13207","complexity":"2.2993","id":218121,"parent":0}},{"type":"Feature","geometry":{"type":"Point","coordinates":[9.743,6.84]},"properties":{"label":"Ishtar: Gardens of Babylon","size":22.983,"ratings":"7.01344","complexity":"2.25","id":271088,"parent":0}},{"type":"Feature","geometry":{"type":"Point","coordinates":[10.195,6.5]},"properties":{"label":"Mariposas","size":24.736,"ratings":"6.82595","complexity":"2.1667","id":297978,"parent":0}},{"type":"Feature","geometry":{"type":"Point","coordinates":[10.48,7.68]},"properties":{"label":"Praga Caput Regni","size":28.253999999999998,"ratings":"7.92463","complexity":"3.7419","id":308765,"parent":0}},{"type":"Feature","geometry":{"type":"Point","coordinates":[10.442,7.04]},"properties":{"label":"Imperial Settlers: Empires of the North","size":27.137999999999998,"ratings":"7.44372","complexity":"2.7946","id":270844,"parent":0}},{"type":"Feature","geometry":{"type":"Point","coordinates":[9.49,7.27]},"properties":{"label":"Ex Libris","size":26.434,"ratings":"7.1387","complexity":"2.5357","id":201825,"parent":0}},{"type":"Feature","geometry":{"type":"Point","coordinates":[10.153,6.86]},"properties":{"label":"Raccoon Tycoon","size":24.439,"ratings":"7.28722","complexity":"2.1538","id":254386,"parent":0}},{"type":"Feature","geometry":{"type":"Point","coordinates":[10.088,7.52]},"properties":{"label":"The Magnificent","size":23.612000000000002,"ratings":"7.52557","complexity":"3.1302","id":283863,"parent":0}},{"type":"Feature","geometry":{"type":"Point","coordinates":[9.535,6.38]},"properties":{"label":"Little Town","size":23.809,"ratings":"7.19032","complexity":"1.9189","id":241266,"parent":0}},{"type":"Feature","geometry":{"type":"Point","coordinates":[8.751,7.53]},"properties":{"label":"Via Nebula","size":24.498,"ratings":"7.03107","complexity":"2.2381","id":191231,"parent":0}},{"type":"Feature","geometry":{"type":"Point","coordinates":[11.221,7.01]},"properties":{"label":"Red Rising","size":27.404,"ratings":"7.0251","complexity":"2.2906","id":329465,"parent":0}},{"type":"Feature","geometry":{"type":"Point","coordinates":[9.51,8.31]},"properties":{"label":"Forum Trajanum","size":22.821,"ratings":"7.23363","complexity":"3.4649","id":244049,"parent":0}},{"type":"Feature","geometry":{"type":"Point","coordinates":[10.041,6.57]},"properties":{"label":"Railroad Ink: Blazing Red Edition","size":26.852,"ratings":"7.09404","complexity":"1.4615","id":251678,"parent":0}},{"type":"Feature","geometry":{"type":"Point","coordinates":[8.488,6.97]},"properties":{"label":"The River","size":22.294,"ratings":"6.61474","complexity":"1.9655","id":257759,"parent":0}},{"type":"Feature","geometry":{"type":"Point","coordinates":[10.1,8.1]},"properties":{"label":"Black Angel","size":24.769,"ratings":"7.24668","complexity":"3.8562","id":230244,"parent":0}},{"type":"Feature","geometry":{"type":"Point","coordinates":[10.944,7.59]},"properties":{"label":"In the Hall of the Mountain King","size":24.28,"ratings":"7.61653","complexity":"2.8274","id":265402,"parent":0}},{"type":"Feature","geometry":{"type":"Point","coordinates":[11.078,6.71]},"properties":{"label":"Honey Buzz","size":25.556,"ratings":"7.59528","complexity":"2.7468","id":284742,"parent":0}},{"type":"Feature","geometry":{"type":"Point","coordinates":[8.892,6.44]},"properties":{"label":"Archaeology: The New Expedition","size":24.051000000000002,"ratings":"7.13056","complexity":"1.2796","id":191300,"parent":0}},{"type":"Feature","geometry":{"type":"Point","coordinates":[9.547,6.85]},"properties":{"label":"Paper Tales","size":24.862000000000002,"ratings":"7.02919","complexity":"2.1714","id":217861,"parent":0}},{"type":"Feature","geometry":{"type":"Point","coordinates":[9.12,8.26]},"properties":{"label":"Council of 4","size":22.944,"ratings":"7.1417","complexity":"2.625","id":173101,"parent":0}},{"type":"Feature","geometry":{"type":"Point","coordinates":[10.237,7.44]},"properties":{"label":"IKI","size":24.762,"ratings":"7.66329","complexity":"3.0422","id":177478,"parent":0}},{"type":"Feature","geometry":{"type":"Point","coordinates":[8.681,7.17]},"properties":{"label":"Fabled Fruit","size":26.006999999999998,"ratings":"6.99115","complexity":"1.6047","id":203427,"parent":0}},{"type":"Feature","geometry":{"type":"Point","coordinates":[9.627,6.17]},"properties":{"label":"Letter Jam","size":24.705,"ratings":"7.19721","complexity":"1.963","id":275467,"parent":0}},{"type":"Feature","geometry":{"type":"Point","coordinates":[9.475,8.13]},"properties":{"label":"The Manhattan Project: Energy Empire","size":26.088,"ratings":"7.74887","complexity":"3.0359","id":176734,"parent":0}},{"type":"Feature","geometry":{"type":"Point","coordinates":[9.619,8.46]},"properties":{"label":"Gentes","size":23.466,"ratings":"7.40333","complexity":"3.1752","id":217780,"parent":0}},{"type":"Feature","geometry":{"type":"Point","coordinates":[10.83,7.2]},"properties":{"label":"Pan Am","size":25.691,"ratings":"7.54749","complexity":"2.4","id":303057,"parent":0}},{"type":"Feature","geometry":{"type":"Point","coordinates":[8.555,6.82]},"properties":{"label":"Orbis","size":22.506,"ratings":"6.63994","complexity":"2.04","id":255507,"parent":0}},{"type":"Feature","geometry":{"type":"Point","coordinates":[11.334,6.77]},"properties":{"label":"Flamecraft","size":32.106,"ratings":"7.46334","complexity":"2.1931","id":336986,"parent":0}},{"type":"Feature","geometry":{"type":"Point","coordinates":[11.283,7.43]},"properties":{"label":"Endless Winter: Paleoamericans","size":27.458,"ratings":"7.77339","complexity":"3.2849","id":305096,"parent":0}},{"type":"Feature","geometry":{"type":"Point","coordinates":[9.327,8.23]},"properties":{"label":"Riverboat","size":22.624,"ratings":"7.43081","complexity":"2.9406","id":227515,"parent":0}},{"type":"Feature","geometry":{"type":"Point","coordinates":[11.327,7.27]},"properties":{"label":"Raiders of Scythia","size":25.221,"ratings":"7.76935","complexity":"2.7184","id":301880,"parent":0}},{"type":"Feature","geometry":{"type":"Point","coordinates":[9.614,8.22]},"properties":{"label":"Dice Settlers","size":22.768,"ratings":"6.90837","complexity":"2.925","id":230267,"parent":0}},{"type":"Feature","geometry":{"type":"Point","coordinates":[10.347,8.53]},"properties":{"label":"Trismegistus: The Ultimate Formula","size":23.433,"ratings":"7.59121","complexity":"4.1747","id":281442,"parent":0}},{"type":"Feature","geometry":{"type":"Point","coordinates":[9.914,8.26]},"properties":{"label":"Pret-a-Porter","size":24.78,"ratings":"7.32875","complexity":"3.5627","id":87890,"parent":0}},{"type":"Feature","geometry":{"type":"Point","coordinates":[10.099,8.3]},"properties":{"label":"Cooper Island","size":23.859,"ratings":"7.59244","complexity":"4.159","id":269511,"parent":0}},{"type":"Feature","geometry":{"type":"Point","coordinates":[9.276,6.63]},"properties":{"label":"Meeple Circus","size":25.784,"ratings":"7.03306","complexity":"1.4388","id":193214,"parent":0}},{"type":"Feature","geometry":{"type":"Point","coordinates":[10.482,8.67]},"properties":{"label":"Tawantinsuyu: The Inca Empire","size":22.563,"ratings":"7.4308","complexity":"4.1094","id":306481,"parent":0}},{"type":"Feature","geometry":{"type":"Point","coordinates":[9.013,6.08]},"properties":{"label":"Imhotep: The Duel","size":22.835,"ratings":"7.08497","complexity":"1.9655","id":255674,"parent":0}},{"type":"Feature","geometry":{"type":"Point","coordinates":[9.607,8.02]},"properties":{"label":"Masters of Renaissance: Lorenzo il Magnifico - The Card Game","size":21.821,"ratings":"7.1739","complexity":"2.0847","id":280453,"parent":0}},{"type":"Feature","geometry":{"type":"Point","coordinates":[9.971,8.41]},"properties":{"label":"Crystal Palace","size":23.297,"ratings":"7.52293","complexity":"3.7935","id":280480,"parent":0}},{"type":"Feature","geometry":{"type":"Point","coordinates":[10.717,7.72]},"properties":{"label":"Vindication","size":27.046,"ratings":"7.80021","complexity":"3.083","id":224783,"parent":0}},{"type":"Feature","geometry":{"type":"Point","coordinates":[9.185,6.21]},"properties":{"label":"Herbaceous","size":25.464,"ratings":"7.03453","complexity":"1.2083","id":195314,"parent":0}},{"type":"Feature","geometry":{"type":"Point","coordinates":[8.766,7.32]},"properties":{"label":"Sentient","size":22.549,"ratings":"7.20218","complexity":"2.2045","id":223855,"parent":0}},{"type":"Feature","geometry":{"type":"Point","coordinates":[8.592,8.28]},"properties":{"label":"Saint Petersburg (Second Edition)","size":23.355,"ratings":"7.46674","complexity":"2.6417","id":156943,"parent":0}},{"type":"Feature","geometry":{"type":"Point","coordinates":[10.566,8.4]},"properties":{"label":"Caylus 1303","size":22.96,"ratings":"7.45599","complexity":"2.8908","id":284818,"parent":0}},{"type":"Feature","geometry":{"type":"Point","coordinates":[11.443,6.69]},"properties":{"label":"Atlantis Rising (Second Edition)","size":24.323999999999998,"ratings":"7.56658","complexity":"2.4579","id":248490,"parent":0}},{"type":"Feature","geometry":{"type":"Point","coordinates":[10.169,5.93]},"properties":{"label":"Coatl","size":22.527,"ratings":"6.96253","complexity":"2.0286","id":274841,"parent":0}},{"type":"Feature","geometry":{"type":"Point","coordinates":[9.422,7.42]},"properties":{"label":"Rune Stones","size":21.82,"ratings":"7.27601","complexity":"2.3529","id":285265,"parent":0}},{"type":"Feature","geometry":{"type":"Point","coordinates":[8.678,7.89]},"properties":{"label":"Shakespeare","size":24.364,"ratings":"7.41805","complexity":"2.9944","id":180511,"parent":0}},{"type":"Feature","geometry":{"type":"Point","coordinates":[10.72,8.35]},"properties":{"label":"Circadians: First Light","size":22.86,"ratings":"7.5779","complexity":"3.414","id":264052,"parent":0}},{"type":"Feature","geometry":{"type":"Point","coordinates":[10.629,8.2]},"properties":{"label":"Messina 1347","size":22.97,"ratings":"7.60504","complexity":"3.5669","id":238799,"parent":0}},{"type":"Feature","geometry":{"type":"Point","coordinates":[11.133,7.59]},"properties":{"label":"Revive","size":25.771,"ratings":"8.17882","complexity":"3.4133","id":332772,"parent":0}},{"type":"Feature","geometry":{"type":"Point","coordinates":[9.753,6.51]},"properties":{"label":"The Grimm Forest","size":25.803,"ratings":"7.08593","complexity":"1.9394","id":212402,"parent":0}},{"type":"Feature","geometry":{"type":"Point","coordinates":[10.837,8.16]},"properties":{"label":"Golem","size":23.496,"ratings":"7.58569","complexity":"3.9787","id":298383,"parent":0}},{"type":"Feature","geometry":{"type":"Point","coordinates":[10.646,7.61]},"properties":{"label":"Gutenberg","size":21.967,"ratings":"7.37896","complexity":"2.7011","id":339958,"parent":0}},{"type":"Feature","geometry":{"type":"Point","coordinates":[11.429,6.95]},"properties":{"label":"Libertalia: Winds of Galecrest","size":25.496000000000002,"ratings":"7.48433","complexity":"2.1314","id":356033,"parent":0}},{"type":"Feature","geometry":{"type":"Point","coordinates":[9.874,6.07]},"properties":{"label":"Clever Cubed","size":22.908,"ratings":"7.50155","complexity":"2.4247","id":316546,"parent":0}},{"type":"Feature","geometry":{"type":"Point","coordinates":[8.184,7.77]},"properties":{"label":"Scoville","size":25.375,"ratings":"7.12419","complexity":"2.7797","id":145659,"parent":0}},{"type":"Feature","geometry":{"type":"Point","coordinates":[10.18,8.63]},"properties":{"label":"Vinhos: Deluxe Edition","size":26.62,"ratings":"8.10061","complexity":"4.0056","id":175640,"parent":0}},{"type":"Feature","geometry":{"type":"Point","coordinates":[9.417,9.06]},"properties":{"label":"Agra","size":22.396,"ratings":"7.30705","complexity":"4.3433","id":230085,"parent":0}},{"type":"Feature","geometry":{"type":"Point","coordinates":[9.427,8.71]},"properties":{"label":"The Colonists","size":24.169,"ratings":"7.55108","complexity":"4.0826","id":192836,"parent":0}},{"type":"Feature","geometry":{"type":"Point","coordinates":[8.346,7.84]},"properties":{"label":"La Granja: No Siesta","size":22.397,"ratings":"6.79176","complexity":"2.1892","id":195528,"parent":0}},{"type":"Feature","geometry":{"type":"Point","coordinates":[8.341,8.03]},"properties":{"label":"Automania","size":22.474,"ratings":"7.32367","complexity":"2.74","id":176544,"parent":0}},{"type":"Feature","geometry":{"type":"Point","coordinates":[9.587,7.59]},"properties":{"label":"Rise of Tribes","size":23.001,"ratings":"7.14002","complexity":"2.177","id":202583,"parent":0}},{"type":"Feature","geometry":{"type":"Point","coordinates":[10.309,6.57]},"properties":{"label":"Shards of Infinity","size":24.666,"ratings":"7.47973","complexity":"1.9889","id":244115,"parent":0}},{"type":"Feature","geometry":{"type":"Point","coordinates":[8.512,8.59]},"properties":{"label":"Jorvik","size":22.23,"ratings":"6.80068","complexity":"2.3968","id":193739,"parent":0}},{"type":"Feature","geometry":{"type":"Point","coordinates":[8.912,6.95]},"properties":{"label":"Unfair","size":24.973,"ratings":"7.32781","complexity":"2.7227","id":179172,"parent":0}},{"type":"Feature","geometry":{"type":"Point","coordinates":[8.785,8.82]},"properties":{"label":"Kraftwagen","size":22.559,"ratings":"7.23094","complexity":"2.8276","id":171879,"parent":0}},{"type":"Feature","geometry":{"type":"Point","coordinates":[8.701,8.38]},"properties":{"label":"Myrmes","size":25.544,"ratings":"7.26036","complexity":"3.4527","id":126792,"parent":0}},{"type":"Feature","geometry":{"type":"Point","coordinates":[8.377,7.09]},"properties":{"label":"Alien Artifacts","size":22.739,"ratings":"6.5704","complexity":"2.9206","id":181293,"parent":0}},{"type":"Feature","geometry":{"type":"Point","coordinates":[9.518,8.84]},"properties":{"label":"Calimala","size":22.259999999999998,"ratings":"7.20435","complexity":"2.7887","id":199383,"parent":0}},{"type":"Feature","geometry":{"type":"Point","coordinates":[10.831,7.43]},"properties":{"label":"Viscounts of the West Kingdom","size":29.555999999999997,"ratings":"7.84257","complexity":"3.4506","id":296151,"parent":0}},{"type":"Feature","geometry":{"type":"Point","coordinates":[10.305,7.71]},"properties":{"label":"Bonfire","size":26.219,"ratings":"7.67563","complexity":"3.6392","id":304420,"parent":0}},{"type":"Feature","geometry":{"type":"Point","coordinates":[10.327,7.57]},"properties":{"label":"Smartphone Inc","size":26.005,"ratings":"7.58975","complexity":"2.7662","id":246684,"parent":0}},{"type":"Feature","geometry":{"type":"Point","coordinates":[11.54,7.48]},"properties":{"label":"Dwellings of Eldervale","size":26.609,"ratings":"8.18891","complexity":"3.2456","id":271055,"parent":0}},{"type":"Feature","geometry":{"type":"Point","coordinates":[11.071,7.93]},"properties":{"label":"Darwin's Journey","size":25.204,"ratings":"8.19937","complexity":"3.8584","id":322289,"parent":0}},{"type":"Feature","geometry":{"type":"Point","coordinates":[11.087,7.02]},"properties":{"label":"Fort","size":29.426000000000002,"ratings":"7.12526","complexity":"2.4267","id":296912,"parent":0}},{"type":"Feature","geometry":{"type":"Point","coordinates":[9.614,7.89]},"properties":{"label":"Nusfjord","size":26.259999999999998,"ratings":"7.64232","complexity":"2.8387","id":234277,"parent":0}},{"type":"Feature","geometry":{"type":"Point","coordinates":[10.421,8.38]},"properties":{"label":"Escape Plan","size":25.124,"ratings":"7.51862","complexity":"3.6678","id":142379,"parent":0}},{"type":"Feature","geometry":{"type":"Point","coordinates":[10.24,8.13]},"properties":{"label":"Alma Mater","size":22.748,"ratings":"7.37854","complexity":"3.7516","id":299960,"parent":0}},{"type":"Feature","geometry":{"type":"Point","coordinates":[9.096,7.41]},"properties":{"label":"Yamatai","size":26.572,"ratings":"7.19265","complexity":"2.9657","id":213893,"parent":0}},{"type":"Feature","geometry":{"type":"Point","coordinates":[10.795,6.36]},"properties":{"label":"Welcome to the Moon","size":26.367,"ratings":"7.9796","complexity":"2.5072","id":339789,"parent":0}},{"type":"Feature","geometry":{"type":"Point","coordinates":[10.91,6.46]},"properties":{"label":"Splendor Duel","size":28.389,"ratings":"7.98012","complexity":"1.9653","id":364073,"parent":0}},{"type":"Feature","geometry":{"type":"Point","coordinates":[11.307,8.24]},"properties":{"label":"Great Western Trail: Argentina","size":22.744,"ratings":"8.4786","complexity":"3.8839","id":364011,"parent":0}},{"type":"Feature","geometry":{"type":"Point","coordinates":[11.006,8.23]},"properties":{"label":"Reavers of Midgard","size":22.822,"ratings":"7.38787","complexity":"2.9362","id":242684,"parent":0}},{"type":"Feature","geometry":{"type":"Point","coordinates":[9.555,8.61]},"properties":{"label":"Kanban: Driver's Edition","size":26.779,"ratings":"7.78742","complexity":"4.365","id":109276,"parent":0}},{"type":"Feature","geometry":{"type":"Point","coordinates":[9.088,7.9]},"properties":{"label":"First Class: All Aboard the Orient Express!","size":25.675,"ratings":"7.41906","complexity":"2.7887","id":206941,"parent":0}},{"type":"Feature","geometry":{"type":"Point","coordinates":[11.198,8.35]},"properties":{"label":"Brazil: Imperial","size":22.85,"ratings":"7.64452","complexity":"2.9936","id":249277,"parent":0}},{"type":"Feature","geometry":{"type":"Point","coordinates":[11.281,8.6]},"properties":{"label":"Weather Machine","size":22.894,"ratings":"7.8357","complexity":"4.5929","id":237179,"parent":0}},{"type":"Feature","geometry":{"type":"Point","coordinates":[10.341,7.16]},"properties":{"label":"Witchstone","size":22.982,"ratings":"7.5841","complexity":"2.77","id":318560,"parent":0}},{"type":"Feature","geometry":{"type":"Point","coordinates":[11.406,8.07]},"properties":{"label":"Rococo: Deluxe Edition","size":23.057,"ratings":"8.22705","complexity":"3.0583","id":296100,"parent":0}},{"type":"Feature","geometry":{"type":"Point","coordinates":[10.689,8.05]},"properties":{"label":"CloudAge","size":22.189,"ratings":"7.25421","complexity":"2.8265","id":316858,"parent":0}},{"type":"Feature","geometry":{"type":"Point","coordinates":[11.502,7.86]},"properties":{"label":"Mosaic: A Story of Civilization","size":23.377,"ratings":"7.60763","complexity":"2.935","id":329551,"parent":0}},{"type":"Feature","geometry":{"type":"Point","coordinates":[11.809,8.09]},"properties":{"label":"The Great Wall","size":23.847,"ratings":"7.87669","complexity":"3.9","id":292375,"parent":0}},{"type":"Feature","geometry":{"type":"Point","coordinates":[9.19,8.44]},"properties":{"label":"Bruxelles 1893","size":25.476,"ratings":"7.6126","complexity":"3.5865","id":144592,"parent":0}},{"type":"Feature","geometry":{"type":"Point","coordinates":[11.548,7.98]},"properties":{"label":"Hansa Teutonica: Big Box","size":24.523,"ratings":"8.38892","complexity":"2.9508","id":286749,"parent":0}},{"type":"Feature","geometry":{"type":"Point","coordinates":[9.744,8.11]},"properties":{"label":"New Frontiers","size":23.666,"ratings":"7.4256","complexity":"2.95","id":255692,"parent":0}},{"type":"Feature","geometry":{"type":"Point","coordinates":[8.885,7.42]},"properties":{"label":"The Castles of Burgundy: The Card Game","size":26.741,"ratings":"6.95687","complexity":"2.5686","id":191977,"parent":0}},{"type":"Feature","geometry":{"type":"Point","coordinates":[9.355,7.34]},"properties":{"label":"The Pursuit of Happiness","size":25.503,"ratings":"7.17921","complexity":"2.5368","id":181687,"parent":0}},{"type":"Feature","geometry":{"type":"Point","coordinates":[8.991,8.07]},"properties":{"label":"Amerigo","size":26.141,"ratings":"7.44464","complexity":"2.9822","id":137408,"parent":0}},{"type":"Feature","geometry":{"type":"Point","coordinates":[11.625,7.74]},"properties":{"label":"The White Castle","size":27.167,"ratings":"7.97452","complexity":"3.0145","id":371942,"parent":0}},{"type":"Feature","geometry":{"type":"Point","coordinates":[11.632,6.56]},"properties":{"label":"Dinosaur Island: Rawr 'n Write","size":23.323,"ratings":"7.73527","complexity":"2.8","id":318009,"parent":0}},{"type":"Feature","geometry":{"type":"Point","coordinates":[9.174,7.03]},"properties":{"label":"Valeria: Card Kingdoms","size":25.576,"ratings":"7.45266","complexity":"1.9776","id":170561,"parent":0}},{"type":"Feature","geometry":{"type":"Point","coordinates":[10.563,8.85]},"properties":{"label":"Tabannusi: Builders of Ur","size":21.474,"ratings":"7.39622","complexity":"3.8687","id":316786,"parent":0}},{"type":"Feature","geometry":{"type":"Point","coordinates":[11.891,6.92]},"properties":{"label":"Clank!: Catacombs","size":24.569,"ratings":"8.30881","complexity":"2.5208","id":365717,"parent":0}},{"type":"Feature","geometry":{"type":"Point","coordinates":[10.199,6.34]},"properties":{"label":"Roam","size":23.779,"ratings":"7.30714","complexity":"1.825","id":267319,"parent":0}},{"type":"Feature","geometry":{"type":"Point","coordinates":[10.904,8.32]},"properties":{"label":"Marrakesh","size":22.177,"ratings":"8.19833","complexity":"3.359","id":342810,"parent":0}},{"type":"Feature","geometry":{"type":"Point","coordinates":[11.928,7.88]},"properties":{"label":"Dead Reckoning","size":22.746,"ratings":"8.21014","complexity":"3.3913","id":276182,"parent":0}},{"type":"Feature","geometry":{"type":"Point","coordinates":[9.022,8.42]},"properties":{"label":"Luna","size":25.045,"ratings":"7.30007","complexity":"3.3259","id":70512,"parent":0}},{"type":"Feature","geometry":{"type":"Point","coordinates":[9.011,6.99]},"properties":{"label":"Istanbul: The Dice Game","size":24.692,"ratings":"7.14917","complexity":"1.7879","id":235488,"parent":0}},{"type":"Feature","geometry":{"type":"Point","coordinates":[8.812,6.86]},"properties":{"label":"The Castles of Burgundy: The Dice Game","size":23.948999999999998,"ratings":"6.88474","complexity":"1.8919","id":232988,"parent":0}},{"type":"Feature","geometry":{"type":"Point","coordinates":[11.226,7.32]},"properties":{"label":"Lockup: A Roll Player Tale","size":22.201999999999998,"ratings":"7.37392","complexity":"2.4","id":240855,"parent":0}},{"type":"Feature","geometry":{"type":"Point","coordinates":[9.213,8.59]},"properties":{"label":"Signorie","size":23.112000000000002,"ratings":"7.38573","complexity":"3.5305","id":177678,"parent":0}},{"type":"Feature","geometry":{"type":"Point","coordinates":[11.704,8.07]},"properties":{"label":"Oath: Chronicles of Empire & Exile","size":26.69,"ratings":"7.80838","complexity":"4.1055","id":291572,"parent":0}},{"type":"Feature","geometry":{"type":"Point","coordinates":[8.812,8.18]},"properties":{"label":"Ulm","size":23.281,"ratings":"7.02715","complexity":"2.6961","id":191876,"parent":0}},{"type":"Feature","geometry":{"type":"Point","coordinates":[9.756,8.52]},"properties":{"label":"Outlive","size":24.564,"ratings":"7.29638","complexity":"3.0064","id":191051,"parent":0}},{"type":"Feature","geometry":{"type":"Point","coordinates":[11.757,6.63]},"properties":{"label":"It's a Wonderful Kingdom","size":22.363,"ratings":"7.32318","complexity":"2.6406","id":327711,"parent":0}},{"type":"Feature","geometry":{"type":"Point","coordinates":[10.066,8.76]},"properties":{"label":"Faiyum","size":22.143,"ratings":"7.51439","complexity":"3.0849","id":318983,"parent":0}},{"type":"Feature","geometry":{"type":"Point","coordinates":[11.462,6.79]},"properties":{"label":"Call to Adventure","size":26.099,"ratings":"7.10182","complexity":"2.0067","id":238992,"parent":0}},{"type":"Feature","geometry":{"type":"Point","coordinates":[9.682,6.95]},"properties":{"label":"Troyes Dice","size":22.211,"ratings":"7.04192","complexity":"2.2879","id":284584,"parent":0}},{"type":"Feature","geometry":{"type":"Point","coordinates":[10.497,9.11]},"properties":{"label":"Imperial Steam","size":21.935,"ratings":"7.80533","complexity":"4.1959","id":338760,"parent":0}},{"type":"Feature","geometry":{"type":"Point","coordinates":[11.586,8.25]},"properties":{"label":"Skymines","size":22.08,"ratings":"8.07868","complexity":"3.8857","id":359438,"parent":0}},{"type":"Feature","geometry":{"type":"Point","coordinates":[9.029,8.57]},"properties":{"label":"The Prodigals Club","size":22.68,"ratings":"7.30181","complexity":"3.2551","id":181796,"parent":0}},{"type":"Feature","geometry":{"type":"Point","coordinates":[8.842,7.05]},"properties":{"label":"Indian Summer","size":23.902,"ratings":"6.77155","complexity":"2.1467","id":233678,"parent":0}},{"type":"Feature","geometry":{"type":"Point","coordinates":[9.977,5.99]},"properties":{"label":"Conspiracy: Abyss Universe","size":22.923000000000002,"ratings":"7.27222","complexity":"1.7841","id":276042,"parent":0}},{"type":"Feature","geometry":{"type":"Point","coordinates":[11.722,7.57]},"properties":{"label":"Encyclopedia","size":21.961,"ratings":"7.48429","complexity":"3.049","id":351526,"parent":0}},{"type":"Feature","geometry":{"type":"Point","coordinates":[10.677,9.06]},"properties":{"label":"Coffee Traders","size":21.89,"ratings":"7.74385","complexity":"4.2331","id":325022,"parent":0}},{"type":"Feature","geometry":{"type":"Point","coordinates":[8.846,7.59]},"properties":{"label":"Fields of Green","size":23.77,"ratings":"7.14177","complexity":"2.6263","id":200954,"parent":0}},{"type":"Feature","geometry":{"type":"Point","coordinates":[12.143,7.45]},"properties":{"label":"Unfathomable","size":24.917,"ratings":"7.53921","complexity":"3.0676","id":340466,"parent":0}},{"type":"Feature","geometry":{"type":"Point","coordinates":[10.75,6.05]},"properties":{"label":"Codex Naturalis","size":24.252,"ratings":"7.22962","complexity":"1.7475","id":314503,"parent":0}},{"type":"Feature","geometry":{"type":"Point","coordinates":[11.891,6.38]},"properties":{"label":"Wingspan Asia","size":24.88,"ratings":"8.34107","complexity":"2.6269","id":366161,"parent":0}},{"type":"Feature","geometry":{"type":"Point","coordinates":[9.918,8.74]},"properties":{"label":"Expedition to Newdale","size":21.724,"ratings":"7.4184","complexity":"3.0","id":272682,"parent":0}},{"type":"Feature","geometry":{"type":"Point","coordinates":[11.171,6.84]},"properties":{"label":"Air, Land, & Sea","size":26.217,"ratings":"7.46267","complexity":"1.7143","id":247367,"parent":0}},{"type":"Feature","geometry":{"type":"Point","coordinates":[8.633,8.1]},"properties":{"label":"Coal Baron","size":24.806,"ratings":"7.28689","complexity":"2.5401","id":143515,"parent":0}},{"type":"Feature","geometry":{"type":"Point","coordinates":[11.434,6.15]},"properties":{"label":"Caper: Europe","size":23.796,"ratings":"7.74454","complexity":"2.1154","id":328565,"parent":0}},{"type":"Feature","geometry":{"type":"Point","coordinates":[11.532,8.16]},"properties":{"label":"Abomination: The Heir of Frankenstein","size":23.257,"ratings":"7.45323","complexity":"3.252","id":239472,"parent":0}},{"type":"Feature","geometry":{"type":"Point","coordinates":[8.992,8.86]},"properties":{"label":"ZhanGuo","size":23.207,"ratings":"7.55798","complexity":"3.819","id":160495,"parent":0}},{"type":"Feature","geometry":{"type":"Point","coordinates":[11.824,8.41]},"properties":{"label":"Clash of Cultures: Monumental Edition","size":23.526,"ratings":"8.37131","complexity":"3.6686","id":299659,"parent":0}},{"type":"Feature","geometry":{"type":"Point","coordinates":[9.688,8.81]},"properties":{"label":"Argent: The Consortium","size":24.23,"ratings":"7.63548","complexity":"3.784","id":144797,"parent":0}},{"type":"Feature","geometry":{"type":"Point","coordinates":[9.656,6.76]},"properties":{"label":"Duelosaur Island","size":23.311,"ratings":"7.05981","complexity":"2.3594","id":247236,"parent":0}},{"type":"Feature","geometry":{"type":"Point","coordinates":[10.942,8.94]},"properties":{"label":"Cerebria: The Inside World","size":22.583,"ratings":"7.75776","complexity":"4.3426","id":218479,"parent":0}},{"type":"Feature","geometry":{"type":"Point","coordinates":[11.241,6.49]},"properties":{"label":"Bad Company","size":22.194,"ratings":"7.34562","complexity":"1.9184","id":340677,"parent":0}},{"type":"Feature","geometry":{"type":"Point","coordinates":[9.745,8.93]},"properties":{"label":"The Great Zimbabwe","size":24.685,"ratings":"7.83664","complexity":"3.689","id":111341,"parent":0}},{"type":"Feature","geometry":{"type":"Point","coordinates":[10.667,5.94]},"properties":{"label":"Wild Space","size":22.425,"ratings":"7.21319","complexity":"2.0667","id":298371,"parent":0}},{"type":"Feature","geometry":{"type":"Point","coordinates":[11.691,8.42]},"properties":{"label":"Nucleum","size":23.593,"ratings":"8.23206","complexity":"4.1025","id":396790,"parent":0}},{"type":"Feature","geometry":{"type":"Point","coordinates":[11.736,7.85]},"properties":{"label":"Imperium: Legends","size":23.39,"ratings":"7.85283","complexity":"3.7172","id":318182,"parent":0}},{"type":"Feature","geometry":{"type":"Point","coordinates":[11.44,7.36]},"properties":{"label":"Imperium: Classics","size":26.134999999999998,"ratings":"7.70128","complexity":"3.567","id":318184,"parent":0}},{"type":"Feature","geometry":{"type":"Point","coordinates":[11.156,7.19]},"properties":{"label":"Hadrian's Wall","size":27.403,"ratings":"7.97601","complexity":"3.1338","id":304783,"parent":0}},{"type":"Feature","geometry":{"type":"Point","coordinates":[10.593,7.81]},"properties":{"label":"Carnegie","size":28.9,"ratings":"8.031","complexity":"3.8272","id":310873,"parent":0}},{"type":"Feature","geometry":{"type":"Point","coordinates":[11.323,7.67]},"properties":{"label":"Wayfarers of the South Tigris","size":23.998,"ratings":"7.84613","complexity":"3.8341","id":350316,"parent":0}},{"type":"Feature","geometry":{"type":"Point","coordinates":[10.544,8.01]},"properties":{"label":"Boonlake","size":24.633,"ratings":"7.67317","complexity":"3.7913","id":343905,"parent":0}},{"type":"Feature","geometry":{"type":"Point","coordinates":[12.358,7.96]},"properties":{"label":"Cloudspire","size":23.456,"ratings":"8.19187","complexity":"4.3661","id":262211,"parent":0}},{"type":"Feature","geometry":{"type":"Point","coordinates":[11.891,6.63]},"properties":{"label":"Bullethearts ","size":23.151,"ratings":"7.65028","complexity":"2.1316","id":307305,"parent":0}},{"type":"Feature","geometry":{"type":"Point","coordinates":[10.243,7.9]},"properties":{"label":"Hallertau","size":25.464,"ratings":"7.90525","complexity":"3.3095","id":300322,"parent":0}},{"type":"Feature","geometry":{"type":"Point","coordinates":[10.482,7.48]},"properties":{"label":"Glen More II: Chronicles","size":28.145,"ratings":"7.90513","complexity":"3.0172","id":265188,"parent":0}},{"type":"Feature","geometry":{"type":"Point","coordinates":[10.357,8.03]},"properties":{"label":"Merv: The Heart of the Silk Road","size":23.708,"ratings":"7.52354","complexity":"3.4242","id":306040,"parent":0}},{"type":"Feature","geometry":{"type":"Point","coordinates":[11.163,8.17]},"properties":{"label":"Kanban EV","size":27.501,"ratings":"8.42819","complexity":"4.3187","id":284378,"parent":0}},{"type":"Feature","geometry":{"type":"Point","coordinates":[10.911,7.06]},"properties":{"label":"Earth","size":33.568,"ratings":"7.70486","complexity":"2.8775","id":350184,"parent":0}},{"type":"Feature","geometry":{"type":"Point","coordinates":[10.736,7.89]},"properties":{"label":"Tiletum","size":24.435,"ratings":"7.95701","complexity":"3.4174","id":351913,"parent":0}},{"type":"Feature","geometry":{"type":"Point","coordinates":[12.316,6.73]},"properties":{"label":"Final Girl","size":25.366,"ratings":"8.33047","complexity":"2.6446","id":277659,"parent":0}},{"type":"Feature","geometry":{"type":"Point","coordinates":[11.866,7.12]},"properties":{"label":"Mind MGMT: The Psychic Espionage ","size":24.942,"ratings":"7.94138","complexity":"2.8879","id":284653,"parent":0}},{"type":"Feature","geometry":{"type":"Point","coordinates":[11.005,6.28]},"properties":{"label":"Regicide","size":24.981,"ratings":"7.46278","complexity":"1.9204","id":307002,"parent":0}},{"type":"Feature","geometry":{"type":"Point","coordinates":[10.739,7.32]},"properties":{"label":"Khora: Rise of an Empire","size":23.551000000000002,"ratings":"7.4347","complexity":"2.7317","id":299684,"parent":0}},{"type":"Feature","geometry":{"type":"Point","coordinates":[10.602,7.2]},"properties":{"label":"The Red Cathedral","size":31.881999999999998,"ratings":"7.71813","complexity":"2.8138","id":227224,"parent":0}},{"type":"Feature","geometry":{"type":"Point","coordinates":[9.818,7.89]},"properties":{"label":"Newton","size":26.771,"ratings":"7.56105","complexity":"3.3885","id":244711,"parent":0}},{"type":"Feature","geometry":{"type":"Point","coordinates":[11.241,6.35]},"properties":{"label":"Three Sisters","size":23.183,"ratings":"7.59408","complexity":"2.7176","id":291845,"parent":0}},{"type":"Feature","geometry":{"type":"Point","coordinates":[11.549,7.62]},"properties":{"label":"Merchants Cove","size":23.29,"ratings":"7.50284","complexity":"2.7129","id":277700,"parent":0}},{"type":"Feature","geometry":{"type":"Point","coordinates":[10.724,8.9]},"properties":{"label":"Clinic: Deluxe Edition","size":22.557,"ratings":"7.63365","complexity":"4.0054","id":272739,"parent":0}},{"type":"Feature","geometry":{"type":"Point","coordinates":[9.912,7.73]},"properties":{"label":"Gugong","size":28.743000000000002,"ratings":"7.44893","complexity":"3.0782","id":250458,"parent":0}},{"type":"Feature","geometry":{"type":"Point","coordinates":[10.468,6.16]},"properties":{"label":"Coffee Roaster","size":23.38,"ratings":"7.35609","complexity":"2.1081","id":196526,"parent":0}},{"type":"Feature","geometry":{"type":"Point","coordinates":[10.724,6.68]},"properties":{"label":"Meadow","size":29.782,"ratings":"7.76232","complexity":"2.2475","id":314491,"parent":0}},{"type":"Feature","geometry":{"type":"Point","coordinates":[10.858,6.25]},"properties":{"label":"Challengers!","size":23.431,"ratings":"7.14171","complexity":"1.8","id":359970,"parent":0}},{"type":"Feature","geometry":{"type":"Point","coordinates":[12.063,6.67]},"properties":{"label":"Star Wars: The Deckbuilding Game","size":25.329,"ratings":"7.93719","complexity":"2.0267","id":374173,"parent":0}},{"type":"Feature","geometry":{"type":"Point","coordinates":[11.698,7.17]},"properties":{"label":"Wonderland's War","size":26.311,"ratings":"8.11325","complexity":"3.0332","id":227935,"parent":0}},{"type":"Feature","geometry":{"type":"Point","coordinates":[9.896,7.55]},"properties":{"label":"Crusaders: Thy Will Be Done","size":24.357,"ratings":"7.48223","complexity":"2.4462","id":170624,"parent":0}},{"type":"Feature","geometry":{"type":"Point","coordinates":[12.428,8.07]},"properties":{"label":"War of the Ring: The Card Game","size":22.658,"ratings":"7.78422","complexity":"2.8763","id":362944,"parent":0}},{"type":"Feature","geometry":{"type":"Point","coordinates":[10.985,7.86]},"properties":{"label":"Thunderstone Quest","size":24.313,"ratings":"7.7765","complexity":"2.8333","id":215341,"parent":0}},{"type":"Feature","geometry":{"type":"Point","coordinates":[11.71,7.42]},"properties":{"label":"Distilled","size":23.628,"ratings":"7.90623","complexity":"2.9734","id":295895,"parent":0}},{"type":"Feature","geometry":{"type":"Point","coordinates":[12.26,6.85]},"properties":{"label":"Summoner Wars (Second Edition)","size":23.316,"ratings":"8.16493","complexity":"2.6173","id":332800,"parent":0}},{"type":"Feature","geometry":{"type":"Point","coordinates":[9.864,6.74]},"properties":{"label":"Mandala","size":25.626,"ratings":"7.53231","complexity":"1.7899","id":264241,"parent":0}},{"type":"Feature","geometry":{"type":"Point","coordinates":[10.677,8.48]},"properties":{"label":"Sidereal Confluence","size":24.73,"ratings":"7.77596","complexity":"3.5311","id":202426,"parent":0}},{"type":"Feature","geometry":{"type":"Point","coordinates":[9.188,6.7]},"properties":{"label":"Dale of Merchants","size":25.509,"ratings":"7.18165","complexity":"2.0812","id":176165,"parent":0}},{"type":"Feature","geometry":{"type":"Point","coordinates":[10.803,5.91]},"properties":{"label":"Jekyll vs Hyde","size":23.172,"ratings":"7.27948","complexity":"1.88","id":297129,"parent":0}},{"type":"Feature","geometry":{"type":"Point","coordinates":[11.355,7.93]},"properties":{"label":"Ultimate Railroads","size":22.315,"ratings":"8.45042","complexity":"3.2529","id":329591,"parent":0}},{"type":"Feature","geometry":{"type":"Point","coordinates":[11.076,6.06]},"properties":{"label":"Oriflamme","size":23.945,"ratings":"7.12128","complexity":"1.6441","id":287084,"parent":0}},{"type":"Feature","geometry":{"type":"Point","coordinates":[11.509,6.29]},"properties":{"label":"Paper Dungeons: A Dungeon Scrawler Game","size":22.48,"ratings":"7.19806","complexity":"2.1186","id":291962,"parent":0}},{"type":"Feature","geometry":{"type":"Point","coordinates":[11.193,9.18]},"properties":{"label":"Hamburg","size":20.727,"ratings":"7.62495","complexity":"3.1667","id":314580,"parent":0}},{"type":"Feature","geometry":{"type":"Point","coordinates":[11.19,9.26]},"properties":{"label":"Amsterdam","size":20.671,"ratings":"7.90028","complexity":"3.5","id":314582,"parent":0}},{"type":"Feature","geometry":{"type":"Point","coordinates":[10.894,8.68]},"properties":{"label":"Zapotec","size":20.996,"ratings":"7.25299","complexity":"3.0816","id":322589,"parent":0}},{"type":"Feature","geometry":{"type":"Point","coordinates":[11.383,8.45]},"properties":{"label":"Terracotta Army","size":21.371,"ratings":"7.52017","complexity":"3.3167","id":350458,"parent":0}},{"type":"Feature","geometry":{"type":"Point","coordinates":[11.485,8.57]},"properties":{"label":"Federation","size":21.18,"ratings":"8.07971","complexity":"3.642","id":345868,"parent":0}},{"type":"Feature","geometry":{"type":"Point","coordinates":[11.356,8.93]},"properties":{"label":"Rise","size":20.636,"ratings":"7.13202","complexity":"2.65","id":369282,"parent":0}},{"type":"Feature","geometry":{"type":"Point","coordinates":[11.288,9.03]},"properties":{"label":"Oranienburger Kanal","size":20.713,"ratings":"8.02235","complexity":"3.1628","id":352695,"parent":0}},{"type":"Feature","geometry":{"type":"Point","coordinates":[9.544,5.78]},"properties":{"label":"Claim","size":24.514,"ratings":"6.96442","complexity":"1.69","id":233961,"parent":0}},{"type":"Feature","geometry":{"type":"Point","coordinates":[8.39,7.56]},"properties":{"label":"Super Motherload","size":23.974,"ratings":"7.34524","complexity":"2.2727","id":162286,"parent":0}},{"type":"Feature","geometry":{"type":"Point","coordinates":[8.899,7.9]},"properties":{"label":"The Palaces of Carrara","size":24.711,"ratings":"7.1384","complexity":"2.5926","id":129948,"parent":0}},{"type":"Feature","geometry":{"type":"Point","coordinates":[9.124,8.11]},"properties":{"label":"AquaSphere","size":27.36,"ratings":"7.25597","complexity":"3.6683","id":159508,"parent":0}},{"type":"Feature","geometry":{"type":"Point","coordinates":[8.25,6.76]},"properties":{"label":"Beasty Bar","size":24.094,"ratings":"6.80235","complexity":"1.4104","id":165950,"parent":0}},{"type":"Feature","geometry":{"type":"Point","coordinates":[8.04,7.51]},"properties":{"label":"Villages of Valeria","size":23.118,"ratings":"6.99409","complexity":"2.3214","id":180040,"parent":0}},{"type":"Feature","geometry":{"type":"Point","coordinates":[9.409,8.56]},"properties":{"label":"Nippon","size":24.89,"ratings":"7.6433","complexity":"3.7816","id":154809,"parent":0}},{"type":"Feature","geometry":{"type":"Point","coordinates":[8.849,6.26]},"properties":{"label":"Encore!","size":24.825,"ratings":"6.95945","complexity":"1.1398","id":206931,"parent":0}},{"type":"Feature","geometry":{"type":"Point","coordinates":[8.643,6.89]},"properties":{"label":"Vikings Gone Wild","size":23.633,"ratings":"7.12025","complexity":"2.2419","id":187377,"parent":0}},{"type":"Feature","geometry":{"type":"Point","coordinates":[8.894,6.68]},"properties":{"label":"Gingerbread House","size":22.621,"ratings":"6.99227","complexity":"1.8448","id":258444,"parent":0}},{"type":"Feature","geometry":{"type":"Point","coordinates":[8.012,7.35]},"properties":{"label":"The Builders: Middle Ages","size":24.481,"ratings":"6.47906","complexity":"1.7952","id":144553,"parent":0}},{"type":"Feature","geometry":{"type":"Point","coordinates":[10.217,8.02]},"properties":{"label":"Wildlands","size":23.386,"ratings":"7.28266","complexity":"2.1402","id":244654,"parent":0}},{"type":"Feature","geometry":{"type":"Point","coordinates":[8.121,6.87]},"properties":{"label":"Coconuts","size":24.371000000000002,"ratings":"7.03029","complexity":"1.039","id":145639,"parent":0}},{"type":"Feature","geometry":{"type":"Point","coordinates":[8.308,8.37]},"properties":{"label":"Rialto","size":24.008,"ratings":"6.89682","complexity":"2.5522","id":119591,"parent":0}},{"type":"Feature","geometry":{"type":"Point","coordinates":[8.045,7.01]},"properties":{"label":"Oceanos","size":23.379,"ratings":"6.80343","complexity":"1.8333","id":192860,"parent":0}},{"type":"Feature","geometry":{"type":"Point","coordinates":[8.936,5.79]},"properties":{"label":"Imagine","size":23.964,"ratings":"6.86256","complexity":"1.0617","id":191894,"parent":0}},{"type":"Feature","geometry":{"type":"Point","coordinates":[9.069,6.47]},"properties":{"label":"Kitchen Rush","size":23.938,"ratings":"7.25136","complexity":"2.1928","id":223953,"parent":0}},{"type":"Feature","geometry":{"type":"Point","coordinates":[9.296,8.78]},"properties":{"label":"Madeira","size":24.426000000000002,"ratings":"7.54984","complexity":"4.3063","id":95527,"parent":0}},{"type":"Feature","geometry":{"type":"Point","coordinates":[9.103,8.75]},"properties":{"label":"Railroad Revolution","size":22.778,"ratings":"7.33619","complexity":"3.2589","id":207691,"parent":0}},{"type":"Feature","geometry":{"type":"Point","coordinates":[8.826,8.98]},"properties":{"label":"Panamax","size":24.019,"ratings":"7.31138","complexity":"3.7409","id":131287,"parent":0}},{"type":"Feature","geometry":{"type":"Point","coordinates":[8.849,8.32]},"properties":{"label":"Snowdonia","size":24.958,"ratings":"7.33683","complexity":"2.9933","id":119432,"parent":0}},{"type":"Feature","geometry":{"type":"Point","coordinates":[8.724,9.09]},"properties":{"label":"CO2","size":23.895,"ratings":"7.10616","complexity":"3.8738","id":72225,"parent":0}},{"type":"Feature","geometry":{"type":"Point","coordinates":[9.394,9.32]},"properties":{"label":"Arkwright","size":22.503,"ratings":"7.79951","complexity":"4.5957","id":154825,"parent":0}},{"type":"Feature","geometry":{"type":"Point","coordinates":[9.275,7.86]},"properties":{"label":"The Oracle of Delphi","size":25.141,"ratings":"7.30166","complexity":"3.0142","id":193558,"parent":0}},{"type":"Feature","geometry":{"type":"Point","coordinates":[8.896,8.44]},"properties":{"label":"Francis Drake","size":25.167,"ratings":"7.38098","complexity":"2.916","id":140603,"parent":0}},{"type":"Feature","geometry":{"type":"Point","coordinates":[9.572,7.7]},"properties":{"label":"Heaven & Ale","size":28.413,"ratings":"7.54063","complexity":"3.193","id":227789,"parent":0}},{"type":"Feature","geometry":{"type":"Point","coordinates":[8.843,9.17]},"properties":{"label":"Haspelknecht: The Story of Early Coal Mining","size":21.947,"ratings":"7.23305","complexity":"3.0784","id":169794,"parent":0}},{"type":"Feature","geometry":{"type":"Point","coordinates":[8.533,9.06]},"properties":{"label":"The Golden Ages","size":22.357,"ratings":"7.2638","complexity":"2.8984","id":164338,"parent":0}},{"type":"Feature","geometry":{"type":"Point","coordinates":[9.744,7.59]},"properties":{"label":"Coimbra","size":31.686999999999998,"ratings":"7.62342","complexity":"3.2484","id":245638,"parent":0}},{"type":"Feature","geometry":{"type":"Point","coordinates":[8.765,8.01]},"properties":{"label":"Firenze","size":23.187,"ratings":"7.22828","complexity":"2.5568","id":75449,"parent":0}},{"type":"Feature","geometry":{"type":"Point","coordinates":[8.361,8.63]},"properties":{"label":"Murano","size":22.209,"ratings":"7.18301","complexity":"2.7281","id":163413,"parent":0}},{"type":"Feature","geometry":{"type":"Point","coordinates":[9.271,8.97]},"properties":{"label":"Keyper","size":22.088,"ratings":"7.25539","complexity":"3.5556","id":212516,"parent":0}},{"type":"Feature","geometry":{"type":"Point","coordinates":[8.133,8.66]},"properties":{"label":"Helios","size":21.891,"ratings":"6.72827","complexity":"2.8679","id":154182,"parent":0}},{"type":"Feature","geometry":{"type":"Point","coordinates":[9.271,8.06]},"properties":{"label":"Merlin","size":23.579,"ratings":"7.13233","complexity":"3.0726","id":230933,"parent":0}},{"type":"Feature","geometry":{"type":"Point","coordinates":[9.02,9.05]},"properties":{"label":"Transatlantic","size":21.933,"ratings":"7.0353","complexity":"3.0714","id":163805,"parent":0}},{"type":"Feature","geometry":{"type":"Point","coordinates":[8.439,8.73]},"properties":{"label":"Yedo","size":23.794,"ratings":"7.36027","complexity":"3.3417","id":117915,"parent":0}},{"type":"Feature","geometry":{"type":"Point","coordinates":[8.44,8.48]},"properties":{"label":"My Village","size":22.819,"ratings":"6.9338","complexity":"3.0918","id":172381,"parent":0}},{"type":"Feature","geometry":{"type":"Point","coordinates":[8.602,7.62]},"properties":{"label":"Nations: The Dice Game","size":25.599,"ratings":"6.94346","complexity":"2.0042","id":157809,"parent":0}},{"type":"Feature","geometry":{"type":"Point","coordinates":[8.67,8.58]},"properties":{"label":"Porta Nigra","size":22.285,"ratings":"7.17493","complexity":"2.9906","id":172385,"parent":0}},{"type":"Feature","geometry":{"type":"Point","coordinates":[8.213,7.92]},"properties":{"label":"Fleet","size":25.194,"ratings":"6.84854","complexity":"2.2408","id":121297,"parent":0}},{"type":"Feature","geometry":{"type":"Point","coordinates":[10.242,8.4]},"properties":{"label":"Pipeline","size":24.9,"ratings":"7.61086","complexity":"3.9124","id":256730,"parent":0}},{"type":"Feature","geometry":{"type":"Point","coordinates":[9.602,8.99]},"properties":{"label":"Wendake","size":22.172,"ratings":"7.47867","complexity":"3.6275","id":229265,"parent":0}},{"type":"Feature","geometry":{"type":"Point","coordinates":[8.813,8.62]},"properties":{"label":"Hyperborea","size":24.941,"ratings":"7.17621","complexity":"3.1648","id":119788,"parent":0}},{"type":"Feature","geometry":{"type":"Point","coordinates":[8.341,9.13]},"properties":{"label":"Historia","size":22.404,"ratings":"6.86954","complexity":"3.0881","id":157096,"parent":0}},{"type":"Feature","geometry":{"type":"Point","coordinates":[8.493,8.87]},"properties":{"label":"Guilds of London","size":22.276,"ratings":"6.80033","complexity":"3.0448","id":134157,"parent":0}},{"type":"Feature","geometry":{"type":"Point","coordinates":[9.639,9.52]},"properties":{"label":"Wildcatters","size":21.39,"ratings":"7.60448","complexity":"3.9383","id":146910,"parent":0}},{"type":"Feature","geometry":{"type":"Point","coordinates":[10.139,7.67]},"properties":{"label":"Marco Polo II: In the Service of the Khan","size":27.189,"ratings":"7.96747","complexity":"3.3855","id":283948,"parent":0}},{"type":"Feature","geometry":{"type":"Point","coordinates":[7.995,8.79]},"properties":{"label":"OddVille","size":21.951,"ratings":"6.75789","complexity":"2.3604","id":123219,"parent":0}},{"type":"Feature","geometry":{"type":"Point","coordinates":[9.281,9.54]},"properties":{"label":"Tramways","size":21.538,"ratings":"7.39063","complexity":"3.8082","id":166571,"parent":0}},{"type":"Feature","geometry":{"type":"Point","coordinates":[10.215,8.84]},"properties":{"label":"Bus","size":23.466,"ratings":"7.60552","complexity":"3.0382","id":552,"parent":0}},{"type":"Feature","geometry":{"type":"Point","coordinates":[8.029,8.13]},"properties":{"label":"Le Havre: The Inland Port","size":23.64,"ratings":"6.81498","complexity":"2.5","id":129051,"parent":0}},{"type":"Feature","geometry":{"type":"Point","coordinates":[8.448,9.49]},"properties":{"label":"Ships","size":21.112000000000002,"ratings":"6.83237","complexity":"3.527","id":153737,"parent":0}},{"type":"Feature","geometry":{"type":"Point","coordinates":[9.144,9.13]},"properties":{"label":"Tammany Hall","size":24.226,"ratings":"7.27831","complexity":"2.783","id":30645,"parent":0}},{"type":"Feature","geometry":{"type":"Point","coordinates":[9.889,9.47]},"properties":{"label":"1846: The Race for the Midwest","size":22.891,"ratings":"7.92289","complexity":"3.9821","id":17405,"parent":0}},{"type":"Feature","geometry":{"type":"Point","coordinates":[10.451,7.83]},"properties":{"label":"Anno 1800: The Board Game","size":26.744,"ratings":"7.73917","complexity":"3.1423","id":311193,"parent":0}},{"type":"Feature","geometry":{"type":"Point","coordinates":[8.519,7.94]},"properties":{"label":"Kashgar: Merchants of the Silk Road","size":22.235,"ratings":"7.07503","complexity":"2.2405","id":143175,"parent":0}},{"type":"Feature","geometry":{"type":"Point","coordinates":[9.821,9.12]},"properties":{"label":"Terramara","size":21.443,"ratings":"7.32011","complexity":"3.4483","id":272427,"parent":0}},{"type":"Feature","geometry":{"type":"Point","coordinates":[8.945,8.7]},"properties":{"label":"Ponzi Scheme","size":22.884999999999998,"ratings":"7.14798","complexity":"2.4242","id":180899,"parent":0}},{"type":"Feature","geometry":{"type":"Point","coordinates":[8.481,7.49]},"properties":{"label":"Automobiles","size":23.361,"ratings":"7.21586","complexity":"2.2105","id":180680,"parent":0}},{"type":"Feature","geometry":{"type":"Point","coordinates":[10.917,7.76]},"properties":{"label":"Woodcraft","size":23.689,"ratings":"7.72164","complexity":"3.8451","id":355093,"parent":0}},{"type":"Feature","geometry":{"type":"Point","coordinates":[9.422,7.97]},"properties":{"label":"Chimera Station","size":22.822,"ratings":"7.22861","complexity":"3.1364","id":163642,"parent":0}},{"type":"Feature","geometry":{"type":"Point","coordinates":[9.125,7.74]},"properties":{"label":"Whistle Stop","size":23.529,"ratings":"7.069","complexity":"2.7561","id":221318,"parent":0}},{"type":"Feature","geometry":{"type":"Point","coordinates":[10.13,8.48]},"properties":{"label":"The Estates","size":23.815,"ratings":"7.42123","complexity":"2.3231","id":249381,"parent":0}},{"type":"Feature","geometry":{"type":"Point","coordinates":[8.146,9.05]},"properties":{"label":"Expedition: Northwest Passage","size":21.998,"ratings":"6.97333","complexity":"2.6983","id":71074,"parent":0}},{"type":"Feature","geometry":{"type":"Point","coordinates":[8.62,7.41]},"properties":{"label":"Honshu","size":25.011,"ratings":"6.91928","complexity":"1.9368","id":207336,"parent":0}},{"type":"Feature","geometry":{"type":"Point","coordinates":[8.199,8.79]},"properties":{"label":"Brew Crafters","size":23.119,"ratings":"7.38274","complexity":"3.5817","id":139898,"parent":0}},{"type":"Feature","geometry":{"type":"Point","coordinates":[8.389,9.78]},"properties":{"label":"Asgard","size":20.897,"ratings":"6.78195","complexity":"3.7865","id":131118,"parent":0}},{"type":"Feature","geometry":{"type":"Point","coordinates":[9.208,9.24]},"properties":{"label":"Noria","size":22.008,"ratings":"6.4918","complexity":"3.6104","id":233676,"parent":0}},{"type":"Feature","geometry":{"type":"Point","coordinates":[9.525,9.81]},"properties":{"label":"Three Kingdoms Redux","size":21.53,"ratings":"7.86219","complexity":"4.0488","id":145371,"parent":0}},{"type":"Feature","geometry":{"type":"Point","coordinates":[8.281,8.97]},"properties":{"label":"Dynasties: Heirate & Herrsche","size":21.197,"ratings":"7.20567","complexity":"3.0","id":191972,"parent":0}},{"type":"Feature","geometry":{"type":"Point","coordinates":[7.725,8.49]},"properties":{"label":"El Gaucho","size":21.779,"ratings":"6.79718","complexity":"2.2308","id":162823,"parent":0}},{"type":"Feature","geometry":{"type":"Point","coordinates":[8.163,8.08]},"properties":{"label":"Mottainai","size":24.186,"ratings":"7.03156","complexity":"3.1477","id":175199,"parent":0}},{"type":"Feature","geometry":{"type":"Point","coordinates":[8.636,9.31]},"properties":{"label":"Burano","size":21.218,"ratings":"6.743","complexity":"3.7692","id":181260,"parent":0}},{"type":"Feature","geometry":{"type":"Point","coordinates":[8.99,8.22]},"properties":{"label":"Otys","size":22.391,"ratings":"6.96826","complexity":"2.8588","id":222542,"parent":0}},{"type":"Feature","geometry":{"type":"Point","coordinates":[8.027,9.17]},"properties":{"label":"Inhabit the Earth","size":21.204,"ratings":"6.92863","complexity":"3.1579","id":181797,"parent":0}},{"type":"Feature","geometry":{"type":"Point","coordinates":[8.207,9.24]},"properties":{"label":"Mythotopia","size":21.857,"ratings":"6.79239","complexity":"3.0857","id":133632,"parent":0}},{"type":"Feature","geometry":{"type":"Point","coordinates":[8.206,8.48]},"properties":{"label":"Citrus","size":21.637999999999998,"ratings":"7.1106","complexity":"2.5156","id":145588,"parent":0}},{"type":"Feature","geometry":{"type":"Point","coordinates":[8.568,7.79]},"properties":{"label":"Akrotiri","size":24.576999999999998,"ratings":"7.18205","complexity":"2.6477","id":154458,"parent":0}},{"type":"Feature","geometry":{"type":"Point","coordinates":[8.188,9.58]},"properties":{"label":"The Capitals","size":21.064,"ratings":"6.8944","complexity":"3.5054","id":119012,"parent":0}},{"type":"Feature","geometry":{"type":"Point","coordinates":[9.352,8.4]},"properties":{"label":"Castell","size":21.934,"ratings":"7.42602","complexity":"3.2195","id":238638,"parent":0}},{"type":"Feature","geometry":{"type":"Point","coordinates":[10.455,8.92]},"properties":{"label":"CO2: Second Chance","size":23.33,"ratings":"7.53728","complexity":"4.0769","id":214887,"parent":0}},{"type":"Feature","geometry":{"type":"Point","coordinates":[11.085,7.75]},"properties":{"label":"Bitoku","size":25.834,"ratings":"7.84994","complexity":"3.727","id":323612,"parent":0}},{"type":"Feature","geometry":{"type":"Point","coordinates":[10.029,8.61]},"properties":{"label":"AuZtralia","size":24.691,"ratings":"7.36328","complexity":"2.88","id":231581,"parent":0}},{"type":"Feature","geometry":{"type":"Point","coordinates":[7.835,9.05]},"properties":{"label":"Progress: Evolution of Technology","size":21.945,"ratings":"6.52394","complexity":"2.4231","id":140717,"parent":0}},{"type":"Feature","geometry":{"type":"Point","coordinates":[8.747,8.49]},"properties":{"label":"The Climbers","size":23.183,"ratings":"6.78049","complexity":"1.7946","id":34297,"parent":0}},{"type":"Feature","geometry":{"type":"Point","coordinates":[9.764,9.74]},"properties":{"label":"Lignum (Second Edition)","size":20.9,"ratings":"7.68496","complexity":"4.1429","id":222407,"parent":0}},{"type":"Feature","geometry":{"type":"Point","coordinates":[9.529,9.25]},"properties":{"label":"Mare Nostrum: Empires","size":24.109,"ratings":"7.53278","complexity":"2.9627","id":174785,"parent":0}},{"type":"Feature","geometry":{"type":"Point","coordinates":[7.855,8.26]},"properties":{"label":"Mangrovia","size":21.734,"ratings":"7.16827","complexity":"2.4458","id":165948,"parent":0}},{"type":"Feature","geometry":{"type":"Point","coordinates":[7.868,9.18]},"properties":{"label":"Praetor","size":21.381,"ratings":"6.55608","complexity":"3.0","id":137776,"parent":0}},{"type":"Feature","geometry":{"type":"Point","coordinates":[7.886,8.09]},"properties":{"label":"Trambahn","size":22.17,"ratings":"6.94836","complexity":"1.7959","id":175293,"parent":0}},{"type":"Feature","geometry":{"type":"Point","coordinates":[8.45,9.26]},"properties":{"label":"Key to the City: London","size":21.285,"ratings":"7.0028","complexity":"2.8261","id":205507,"parent":0}},{"type":"Feature","geometry":{"type":"Point","coordinates":[8.328,7.38]},"properties":{"label":"New York 1901","size":26.23,"ratings":"6.79828","complexity":"2.0472","id":174660,"parent":0}},{"type":"Feature","geometry":{"type":"Point","coordinates":[8.024,8.5]},"properties":{"label":"Steam Time","size":21.778,"ratings":"7.07818","complexity":"2.9385","id":180592,"parent":0}},{"type":"Feature","geometry":{"type":"Point","coordinates":[8.916,9.85]},"properties":{"label":"Lignum","size":20.636,"ratings":"7.24013","complexity":"3.7692","id":174155,"parent":0}},{"type":"Feature","geometry":{"type":"Point","coordinates":[8.748,9.75]},"properties":{"label":"Dilluvia Project","size":20.628,"ratings":"7.21753","complexity":"3.6512","id":139245,"parent":0}},{"type":"Feature","geometry":{"type":"Point","coordinates":[9.683,9.32]},"properties":{"label":"Crisis","size":21.986,"ratings":"7.51042","complexity":"3.0698","id":128721,"parent":0}},{"type":"Feature","geometry":{"type":"Point","coordinates":[9.353,7.71]},"properties":{"label":"Reykholt","size":23.478,"ratings":"6.70535","complexity":"2.1481","id":241831,"parent":0}},{"type":"Feature","geometry":{"type":"Point","coordinates":[10.06,7.82]},"properties":{"label":"Paris","size":22.532,"ratings":"7.25478","complexity":"2.7778","id":282954,"parent":0}},{"type":"Feature","geometry":{"type":"Point","coordinates":[10.543,8.53]},"properties":{"label":"Irish Gauge","size":23.205,"ratings":"7.24312","complexity":"2.359","id":161882,"parent":0}},{"type":"Feature","geometry":{"type":"Point","coordinates":[9.973,9]},"properties":{"label":"Ragusa","size":21.727,"ratings":"6.96375","complexity":"2.7302","id":253635,"parent":0}},{"type":"Feature","geometry":{"type":"Point","coordinates":[8.785,9.57]},"properties":{"label":"Ave Roma","size":20.964,"ratings":"7.14377","complexity":"3.7414","id":184459,"parent":0}},{"type":"Feature","geometry":{"type":"Point","coordinates":[8.13,8.24]},"properties":{"label":"Barony","size":22.739,"ratings":"7.07366","complexity":"2.265","id":167513,"parent":0}},{"type":"Feature","geometry":{"type":"Point","coordinates":[7.686,9.05]},"properties":{"label":"City of Iron","size":21.685,"ratings":"7.16891","complexity":"3.2314","id":123499,"parent":0}},{"type":"Feature","geometry":{"type":"Point","coordinates":[8.649,8.93]},"properties":{"label":"The Flow of History","size":22.277,"ratings":"6.76446","complexity":"2.5435","id":204574,"parent":0}},{"type":"Feature","geometry":{"type":"Point","coordinates":[7.949,8.94]},"properties":{"label":"Queen's Architect","size":21.375,"ratings":"6.86285","complexity":"2.7903","id":172547,"parent":0}},{"type":"Feature","geometry":{"type":"Point","coordinates":[8.802,9.4]},"properties":{"label":"Empires: Age of Discovery","size":22.235,"ratings":"7.84055","complexity":"3.3371","id":173442,"parent":0}},{"type":"Feature","geometry":{"type":"Point","coordinates":[9.224,7.31]},"properties":{"label":"Caverna: Cave vs Cave","size":26.7,"ratings":"7.10846","complexity":"2.5506","id":220520,"parent":0}},{"type":"Feature","geometry":{"type":"Point","coordinates":[7.689,7.73]},"properties":{"label":"Harbour","size":25.16,"ratings":"6.49384","complexity":"2.0739","id":155969,"parent":0}},{"type":"Feature","geometry":{"type":"Point","coordinates":[8.905,9.66]},"properties":{"label":"Antike II","size":21.593,"ratings":"7.47512","complexity":"2.8571","id":166857,"parent":0}},{"type":"Feature","geometry":{"type":"Point","coordinates":[8.518,7.12]},"properties":{"label":"World's Fair 1893","size":23.897,"ratings":"7.16219","complexity":"2.0102","id":178336,"parent":0}},{"type":"Feature","geometry":{"type":"Point","coordinates":[7.891,8.44]},"properties":{"label":"Medina (Second Edition)","size":22.062,"ratings":"7.22023","complexity":"2.3582","id":167270,"parent":0}},{"type":"Feature","geometry":{"type":"Point","coordinates":[9.217,9.85]},"properties":{"label":"The Ruhr: A Story of Coal Trade","size":20.664,"ratings":"6.86311","complexity":"3.6154","id":226254,"parent":0}},{"type":"Feature","geometry":{"type":"Point","coordinates":[8.931,9.46]},"properties":{"label":"Trick of the Rails","size":21.14,"ratings":"6.55849","complexity":"2.4375","id":118497,"parent":0}},{"type":"Feature","geometry":{"type":"Point","coordinates":[8.662,9.52]},"properties":{"label":"Round House","size":20.877,"ratings":"7.07824","complexity":"3.3448","id":205498,"parent":0}},{"type":"Feature","geometry":{"type":"Point","coordinates":[8.461,8.29]},"properties":{"label":"Montana","size":21.647,"ratings":"6.72578","complexity":"2.2558","id":233955,"parent":0}},{"type":"Feature","geometry":{"type":"Point","coordinates":[7.797,8.8]},"properties":{"label":"Plums","size":21.449,"ratings":"6.57542","complexity":"1.7949","id":181761,"parent":0}},{"type":"Feature","geometry":{"type":"Point","coordinates":[9.302,9.13]},"properties":{"label":"Dogs of War","size":23.252,"ratings":"7.52043","complexity":"2.6404","id":158435,"parent":0}},{"type":"Feature","geometry":{"type":"Point","coordinates":[7.932,9.63]},"properties":{"label":"Archon: Glory & Machination","size":20.921,"ratings":"6.91393","complexity":"3.1818","id":139033,"parent":0}},{"type":"Feature","geometry":{"type":"Point","coordinates":[9.581,8.73]},"properties":{"label":"13 Days: The Cuban Missile Crisis, 1962","size":24.468,"ratings":"7.22164","complexity":"2.3333","id":177590,"parent":0}},{"type":"Feature","geometry":{"type":"Point","coordinates":[9.988,9.31]},"properties":{"label":"Founders of Gloomhaven","size":23.076,"ratings":"6.61309","complexity":"4.1034","id":214032,"parent":0}},{"type":"Feature","geometry":{"type":"Point","coordinates":[8.497,9.7]},"properties":{"label":"Forge War","size":21.614,"ratings":"7.17375","complexity":"3.7542","id":146221,"parent":0}},{"type":"Feature","geometry":{"type":"Point","coordinates":[9.681,9.16]},"properties":{"label":"Rise to Nobility","size":21.977,"ratings":"6.97582","complexity":"3.3077","id":218293,"parent":0}},{"type":"Feature","geometry":{"type":"Point","coordinates":[8.221,7.52]},"properties":{"label":"SteamRollers","size":21.633,"ratings":"6.57049","complexity":"2.12","id":182704,"parent":0}},{"type":"Feature","geometry":{"type":"Point","coordinates":[9.082,9.78]},"properties":{"label":"Vanuatu (Second Edition)","size":21.163,"ratings":"7.52585","complexity":"3.3333","id":193927,"parent":0}},{"type":"Feature","geometry":{"type":"Point","coordinates":[7.728,8.93]},"properties":{"label":"504","size":21.666,"ratings":"6.21125","complexity":"3.4455","id":175878,"parent":0}},{"type":"Feature","geometry":{"type":"Point","coordinates":[9.839,9.28]},"properties":{"label":"Gentes: Deluxified Edition","size":21.699,"ratings":"7.6947","complexity":"3.2549","id":249703,"parent":0}},{"type":"Feature","geometry":{"type":"Point","coordinates":[8.949,7.15]},"properties":{"label":"Jump Drive","size":24.584,"ratings":"7.00157","complexity":"2.0093","id":205597,"parent":0}},{"type":"Feature","geometry":{"type":"Point","coordinates":[8.706,9.92]},"properties":{"label":"Solarius Mission","size":20.563,"ratings":"7.17186","complexity":"3.9268","id":170199,"parent":0}},{"type":"Feature","geometry":{"type":"Point","coordinates":[10.879,7.95]},"properties":{"label":"Atiwa","size":21.932,"ratings":"7.54018","complexity":"2.7263","id":362452,"parent":0}},{"type":"Feature","geometry":{"type":"Point","coordinates":[11.223,8.01]},"properties":{"label":"Lacrimosa","size":23.206,"ratings":"7.72094","complexity":"3.1572","id":348450,"parent":0}},{"type":"Feature","geometry":{"type":"Point","coordinates":[10.796,8.57]},"properties":{"label":"Stroganov","size":21.82,"ratings":"7.29385","complexity":"3.2708","id":323156,"parent":0}},{"type":"Feature","geometry":{"type":"Point","coordinates":[10.974,8.08]},"properties":{"label":"Brian Boru: High King of Ireland","size":23.34,"ratings":"7.5249","complexity":"2.4804","id":337765,"parent":0}},{"type":"Feature","geometry":{"type":"Point","coordinates":[10.639,7.42]},"properties":{"label":"Whistle Mountain","size":23.134,"ratings":"7.60571","complexity":"3.025","id":301255,"parent":0}},{"type":"Feature","geometry":{"type":"Point","coordinates":[8.942,10.14]},"properties":{"label":"Small City","size":20.644,"ratings":"7.42881","complexity":"3.9483","id":130486,"parent":0}},{"type":"Feature","geometry":{"type":"Point","coordinates":[10.764,9.24]},"properties":{"label":"Dominant Species: Marine","size":22.042,"ratings":"7.96374","complexity":"3.6364","id":262941,"parent":0}},{"type":"Feature","geometry":{"type":"Point","coordinates":[7.493,8.17]},"properties":{"label":"The Great Heartland Hauling Co","size":22.564,"ratings":"6.85295","complexity":"1.8362","id":111417,"parent":0}},{"type":"Feature","geometry":{"type":"Point","coordinates":[10.151,9.5]},"properties":{"label":"Container: 10th Anniversary Jumbo Edition!","size":21.94,"ratings":"7.67074","complexity":"2.9796","id":229892,"parent":0}},{"type":"Feature","geometry":{"type":"Point","coordinates":[9.476,9.48]},"properties":{"label":"Magnastorm","size":21.024,"ratings":"6.78118","complexity":"3.1346","id":257067,"parent":0}},{"type":"Feature","geometry":{"type":"Point","coordinates":[11.04,8.4]},"properties":{"label":"Space Station Phoenix","size":21.324,"ratings":"7.39757","complexity":"3.0","id":356414,"parent":0}},{"type":"Feature","geometry":{"type":"Point","coordinates":[10.052,6.98]},"properties":{"label":"Villagers","size":27.294,"ratings":"7.15786","complexity":"2.1938","id":241724,"parent":0}},{"type":"Feature","geometry":{"type":"Point","coordinates":[9.503,9.63]},"properties":{"label":"Prehistory","size":20.935,"ratings":"7.21833","complexity":"3.9506","id":234948,"parent":0}},{"type":"Feature","geometry":{"type":"Point","coordinates":[9.547,7.01]},"properties":{"label":"Blue Lagoon","size":24.911,"ratings":"7.20681","complexity":"2.007","id":244331,"parent":0}},{"type":"Feature","geometry":{"type":"Point","coordinates":[10.191,7.25]},"properties":{"label":"Chocolate Factory","size":22.05,"ratings":"7.09665","complexity":"2.8947","id":240567,"parent":0}},{"type":"Feature","geometry":{"type":"Point","coordinates":[8.066,7.95]},"properties":{"label":"Warsaw: City of Ruins","size":22.038,"ratings":"7.31813","complexity":"2.2321","id":206803,"parent":0}},{"type":"Feature","geometry":{"type":"Point","coordinates":[7.884,7.65]},"properties":{"label":"Carcassonne: South Seas","size":23.44,"ratings":"7.05711","complexity":"1.8859","id":147303,"parent":0}},{"type":"Feature","geometry":{"type":"Point","coordinates":[9.324,9.77]},"properties":{"label":"Kepler-3042","size":21.265,"ratings":"7.29105","complexity":"3.4375","id":198190,"parent":0}},{"type":"Feature","geometry":{"type":"Point","coordinates":[9.882,8.59]},"properties":{"label":"Bruxelles 1897","size":21.819,"ratings":"7.21548","complexity":"2.9178","id":275913,"parent":0}},{"type":"Feature","geometry":{"type":"Point","coordinates":[9.615,6.51]},"properties":{"label":"LLAMA","size":27.792,"ratings":"6.48068","complexity":"1.0463","id":266083,"parent":0}},{"type":"Feature","geometry":{"type":"Point","coordinates":[10.302,8.28]},"properties":{"label":"Babylonia","size":22.631,"ratings":"7.68027","complexity":"2.3659","id":266164,"parent":0}},{"type":"Feature","geometry":{"type":"Point","coordinates":[8.153,7.42]},"properties":{"label":"Islebound","size":23.57,"ratings":"7.17127","complexity":"2.7176","id":185589,"parent":0}},{"type":"Feature","geometry":{"type":"Point","coordinates":[8.148,7.22]},"properties":{"label":"Adventure Land","size":22.611,"ratings":"6.90261","complexity":"1.8507","id":183231,"parent":0}},{"type":"Feature","geometry":{"type":"Point","coordinates":[8.599,8.46]},"properties":{"label":"Tybor the Builder","size":21.343,"ratings":"6.94541","complexity":"2.1053","id":234621,"parent":0}},{"type":"Feature","geometry":{"type":"Point","coordinates":[9.612,9.95]},"properties":{"label":"18Lilliput","size":20.898,"ratings":"7.10297","complexity":"3.3158","id":250621,"parent":0}},{"type":"Feature","geometry":{"type":"Point","coordinates":[8.405,6.46]},"properties":{"label":"Martian Dice","size":24.006,"ratings":"6.13197","complexity":"1.0676","id":99875,"parent":0}},{"type":"Feature","geometry":{"type":"Point","coordinates":[7.723,8.73]},"properties":{"label":"A Study in Emerald (Second Edition)","size":22.651,"ratings":"6.88832","complexity":"2.9453","id":178054,"parent":0}},{"type":"Feature","geometry":{"type":"Point","coordinates":[9.149,9.62]},"properties":{"label":"Carson City: Big Box","size":21.852,"ratings":"7.99911","complexity":"3.2208","id":177352,"parent":0}},{"type":"Feature","geometry":{"type":"Point","coordinates":[9.72,8.62]},"properties":{"label":"Sierra West","size":21.49,"ratings":"6.81932","complexity":"3.0357","id":257066,"parent":0}},{"type":"Feature","geometry":{"type":"Point","coordinates":[11.179,8.92]},"properties":{"label":"Autobahn","size":21.216,"ratings":"7.13137","complexity":"3.7907","id":348554,"parent":0}},{"type":"Feature","geometry":{"type":"Point","coordinates":[9.371,8.87]},"properties":{"label":"Notre Dame: 10th Anniversary","size":22.218,"ratings":"7.54473","complexity":"2.493","id":213984,"parent":0}},{"type":"Feature","geometry":{"type":"Point","coordinates":[9.229,9.69]},"properties":{"label":"The King Is Dead","size":21.792,"ratings":"7.11878","complexity":"2.4839","id":172996,"parent":0}},{"type":"Feature","geometry":{"type":"Point","coordinates":[8.96,7.55]},"properties":{"label":"Pioneer Days","size":22.037,"ratings":"7.2521","complexity":"2.5224","id":200057,"parent":0}},{"type":"Feature","geometry":{"type":"Point","coordinates":[9.109,7.56]},"properties":{"label":"NEOM","size":22.006,"ratings":"7.28158","complexity":"2.5588","id":246663,"parent":0}},{"type":"Feature","geometry":{"type":"Point","coordinates":[7.853,7.39]},"properties":{"label":"Treasure Hunter","size":23.148,"ratings":"6.75967","complexity":"1.8774","id":182189,"parent":0}},{"type":"Feature","geometry":{"type":"Point","coordinates":[7.803,7.47]},"properties":{"label":"Watson & Holmes","size":22.59,"ratings":"7.27982","complexity":"2.1346","id":182694,"parent":0}},{"type":"Feature","geometry":{"type":"Point","coordinates":[7.976,8.63]},"properties":{"label":"Power Grid: The Card Game","size":21.906,"ratings":"6.70137","complexity":"2.4474","id":203780,"parent":0}},{"type":"Feature","geometry":{"type":"Point","coordinates":[11.008,8.55]},"properties":{"label":"Origins: First Builders","size":21.421,"ratings":"7.07629","complexity":"3.2958","id":322588,"parent":0}},{"type":"Feature","geometry":{"type":"Point","coordinates":[7.725,8.35]},"properties":{"label":"Colony","size":21.965,"ratings":"6.58659","complexity":"2.2571","id":192934,"parent":0}},{"type":"Feature","geometry":{"type":"Point","coordinates":[8.13,8.91]},"properties":{"label":"Dokmus","size":21.207,"ratings":"7.02004","complexity":"2.0455","id":199793,"parent":0}},{"type":"Feature","geometry":{"type":"Point","coordinates":[8.293,9.56]},"properties":{"label":"Papa Paolo","size":20.755,"ratings":"6.93233","complexity":"2.7647","id":195867,"parent":0}},{"type":"Feature","geometry":{"type":"Point","coordinates":[8.911,8.56]},"properties":{"label":"Lift Off","size":21.14,"ratings":"7.10607","complexity":"2.8158","id":260757,"parent":0}},{"type":"Feature","geometry":{"type":"Point","coordinates":[10.858,8.45]},"properties":{"label":"Yellow & Yangtze","size":22.552,"ratings":"7.83818","complexity":"3.102","id":244114,"parent":0}},{"type":"Feature","geometry":{"type":"Point","coordinates":[8.247,9.36]},"properties":{"label":"Steam Works","size":21.173000000000002,"ratings":"6.81454","complexity":"3.1525","id":143176,"parent":0}},{"type":"Feature","geometry":{"type":"Point","coordinates":[9.875,6.94]},"properties":{"label":"Between Two Castles of Mad King Ludwig","size":26.292,"ratings":"7.24231","complexity":"2.1765","id":258036,"parent":0}},{"type":"Feature","geometry":{"type":"Point","coordinates":[9.979,7.33]},"properties":{"label":"Ecos: First Continent","size":24.005,"ratings":"7.14598","complexity":"2.5859","id":279254,"parent":0}},{"type":"Feature","geometry":{"type":"Point","coordinates":[9.934,7.07]},"properties":{"label":"Era: Medieval Age","size":23.7,"ratings":"7.22174","complexity":"2.2644","id":270971,"parent":0}},{"type":"Feature","geometry":{"type":"Point","coordinates":[11.418,7.53]},"properties":{"label":"The King Is Dead: Second Edition","size":26.441,"ratings":"7.65896","complexity":"2.1297","id":319966,"parent":0}},{"type":"Feature","geometry":{"type":"Point","coordinates":[9.247,7.11]},"properties":{"label":"Solenia","size":22.693,"ratings":"7.04895","complexity":"2.1566","id":254018,"parent":0}},{"type":"Feature","geometry":{"type":"Point","coordinates":[9.446,6.13]},"properties":{"label":"Cat Lady","size":25.869,"ratings":"7.03243","complexity":"1.4","id":228504,"parent":0}},{"type":"Feature","geometry":{"type":"Point","coordinates":[10.313,6.78]},"properties":{"label":"Fleet: The Dice Game","size":23.86,"ratings":"7.66409","complexity":"2.4831","id":245961,"parent":0}},{"type":"Feature","geometry":{"type":"Point","coordinates":[9.019,6.35]},"properties":{"label":"Corinth","size":23.035,"ratings":"6.7459","complexity":"1.6875","id":269725,"parent":0}},{"type":"Feature","geometry":{"type":"Point","coordinates":[10.955,6.12]},"properties":{"label":"Sea Salt & Paper","size":26.612000000000002,"ratings":"7.46476","complexity":"1.4038","id":367220,"parent":0}},{"type":"Feature","geometry":{"type":"Point","coordinates":[9.333,6.1]},"properties":{"label":"Planet","size":25.198,"ratings":"6.67473","complexity":"1.596","id":252929,"parent":0}},{"type":"Feature","geometry":{"type":"Point","coordinates":[10.927,7.33]},"properties":{"label":"Tang Garden","size":23.965,"ratings":"7.37812","complexity":"2.6071","id":252153,"parent":0}},{"type":"Feature","geometry":{"type":"Point","coordinates":[11.288,7.14]},"properties":{"label":"Oceans","size":26.386,"ratings":"7.46648","complexity":"2.8768","id":232414,"parent":0}},{"type":"Feature","geometry":{"type":"Point","coordinates":[8.311,6.98]},"properties":{"label":"Hit Z Road","size":24.347,"ratings":"6.76701","complexity":"1.8495","id":176083,"parent":0}},{"type":"Feature","geometry":{"type":"Point","coordinates":[11.049,7.43]},"properties":{"label":"Maglev Metro","size":22.375,"ratings":"7.26959","complexity":"2.7719","id":301257,"parent":0}},{"type":"Feature","geometry":{"type":"Point","coordinates":[8.72,6.48]},"properties":{"label":"Unearth","size":24.990000000000002,"ratings":"6.84719","complexity":"1.9533","id":217085,"parent":0}},{"type":"Feature","geometry":{"type":"Point","coordinates":[9.888,6.62]},"properties":{"label":"Rajas of the Ganges: The Dice Charmers","size":22.353,"ratings":"7.54554","complexity":"2.2836","id":318553,"parent":0}},{"type":"Feature","geometry":{"type":"Point","coordinates":[10.302,6.24]},"properties":{"label":"Paris: La Cite de la Lumiere","size":24.645,"ratings":"7.30617","complexity":"2.0417","id":276498,"parent":0}},{"type":"Feature","geometry":{"type":"Point","coordinates":[9.648,7.09]},"properties":{"label":"Kingsburg (Second Edition)","size":23.088,"ratings":"7.39995","complexity":"2.4568","id":199966,"parent":0}},{"type":"Feature","geometry":{"type":"Point","coordinates":[8.546,6.48]},"properties":{"label":"New York Slice","size":23.772,"ratings":"6.69759","complexity":"1.4444","id":208895,"parent":0}},{"type":"Feature","geometry":{"type":"Point","coordinates":[8.664,6.78]},"properties":{"label":"Viral","size":23.083,"ratings":"6.95028","complexity":"2.5517","id":194690,"parent":0}},{"type":"Feature","geometry":{"type":"Point","coordinates":[8.792,6.56]},"properties":{"label":"Insider","size":23.946,"ratings":"7.05234","complexity":"1.1231","id":206051,"parent":0}},{"type":"Feature","geometry":{"type":"Point","coordinates":[9.328,7.22]},"properties":{"label":"Museum","size":22.548000000000002,"ratings":"7.18862","complexity":"2.5763","id":204505,"parent":0}},{"type":"Feature","geometry":{"type":"Point","coordinates":[7.768,7.2]},"properties":{"label":"Flip City","size":23.98,"ratings":"6.3006","complexity":"1.7358","id":168679,"parent":0}},{"type":"Feature","geometry":{"type":"Point","coordinates":[10.062,5.83]},"properties":{"label":"Similo","size":24.936,"ratings":"6.82427","complexity":"1.037","id":268620,"parent":0}},{"type":"Feature","geometry":{"type":"Point","coordinates":[11.768,7.29]},"properties":{"label":"Dinosaur World","size":23.58,"ratings":"7.39111","complexity":"3.25","id":317457,"parent":0}},{"type":"Feature","geometry":{"type":"Point","coordinates":[10.693,8.67]},"properties":{"label":"The Artemis Project","size":22.091,"ratings":"7.24225","complexity":"2.8333","id":254713,"parent":0}},{"type":"Feature","geometry":{"type":"Point","coordinates":[11.275,6.22]},"properties":{"label":"Creature Comforts","size":24.628,"ratings":"7.50521","complexity":"2.3723","id":304051,"parent":0}},{"type":"Feature","geometry":{"type":"Point","coordinates":[10.119,7.35]},"properties":{"label":"Yukon Airways","size":22.081,"ratings":"7.34578","complexity":"2.7596","id":283294,"parent":0}},{"type":"Feature","geometry":{"type":"Point","coordinates":[8.937,6.86]},"properties":{"label":"Explorers of the North Sea","size":23.015,"ratings":"7.29559","complexity":"2.1333","id":176371,"parent":0}},{"type":"Feature","geometry":{"type":"Point","coordinates":[9.903,8.87]},