{"type":"FeatureCollection","features":[{"type":"Feature","geometry":{"type":"Point","coordinates":[9.715,7.72]},"properties":{"label":"Mountain Goats","size":"2622","ratings":"6.82761","complexity":"1.1463","min_players":"2","max_players":"4","min_players_rec":"2","max_players_rec":"4","min_players_best":"2","max_players_best":"4","min_time":"20","max_time":"20","category":"1009,1089,1017,1098","mechanic":"2072,2886,2035,2004,2939","bayes_rating":"6.24365","id":63975,"parent":0}},{"type":"Feature","geometry":{"type":"Point","coordinates":[7.469,7.22]},"properties":{"label":"Sequoia","size":"972","ratings":"6.64442","complexity":"1.1765","min_players":"2","max_players":"5","min_players_rec":"2","max_players_rec":"5","min_players_best":"2","max_players_best":"5","min_time":"10","max_time":"10","category":"1017,1084","mechanic":"2080,2072,2020","bayes_rating":"5.87127","id":305986,"parent":0}},{"type":"Feature","geometry":{"type":"Point","coordinates":[7.655,7.85]},"properties":{"label":"GPS","size":"595","ratings":"5.30635","complexity":"1.1111","min_players":"2","max_players":"5","min_players_rec":"2","max_players_rec":"5","min_players_best":"2","max_players_best":"5","min_time":"10","max_time":"10","category":"1098,1113","mechanic":"3101,2876","bayes_rating":"5.44801","id":305984,"parent":0}},{"type":"Feature","geometry":{"type":"Point","coordinates":[8.116,6.22]},"properties":{"label":"Bites","size":"1545","ratings":"7.13584","complexity":"1.4688","min_players":"2","max_players":"5","min_players_rec":"2","max_players_rec":"5","min_players_best":"3","max_players_best":"3","min_time":"20","max_time":"20","category":"1009,1089","mechanic":"2013,2875,2960,2011,2004,2939,2897","bayes_rating":"6.214","id":277927,"parent":0}},{"type":"Feature","geometry":{"type":"Point","coordinates":[9.477,7.14]},"properties":{"label":"On Tour","size":"4856","ratings":"6.93357","complexity":"1.45","min_players":"1","max_players":"8","min_players_rec":"1","max_players_rec":"5","min_players_best":"1","max_players_best":"8","min_time":"20","max_time":"20","category":"1017,1054,1098,1097","mechanic":"2999,2072,2039,2081,2055,2661,2819","bayes_rating":"6.49903","id":251412,"parent":0}},{"type":"Feature","geometry":{"type":"Point","coordinates":[7.915,8]},"properties":{"label":"Kabuto Sumo","size":"2345","ratings":"6.79614","complexity":"1.225","min_players":"2","max_players":"4","min_players_rec":"2","max_players_rec":"4","min_players_best":"2","max_players_best":"2","min_time":"15","max_time":"15","category":"1032,1089,1046","mechanic":"3005,2015","bayes_rating":"6.18712","id":320390,"parent":0}},{"type":"Feature","geometry":{"type":"Point","coordinates":[9.305,8.06]},"properties":{"label":"Super Mega Lucky Box","size":"2283","ratings":"7.18795","complexity":"1.2326","min_players":"1","max_players":"6","min_players_rec":"1","max_players_rec":"6","min_players_best":"4","max_players_best":"6","min_time":"20","max_time":"20","category":"1098","mechanic":"2999,2055,2048","bayes_rating":"6.39253","id":341530,"parent":0}},{"type":"Feature","geometry":{"type":"Point","coordinates":[8.992,6.39]},"properties":{"label":"QE","size":"5636","ratings":"7.39635","complexity":"1.5377","min_players":"3","max_players":"5","min_players_rec":"3","max_players_rec":"5","min_players_best":"5","max_players_best":"5","min_time":"45","max_time":"45","category":"1021","mechanic":"2920,2012,2875,2047,2004","bayes_rating":"6.89483","id":266830,"parent":0}},{"type":"Feature","geometry":{"type":"Point","coordinates":[9.164,7.64]},"properties":{"label":"TEN","size":"2529","ratings":"7.09167","complexity":"1.44","min_players":"1","max_players":"5","min_players_rec":"2","max_players_rec":"5","min_players_best":"4","max_players_best":"4","min_time":"15","max_time":"30","category":"1002","mechanic":"2923,2012,2661,2004","bayes_rating":"6.36988","id":335609,"parent":0}},{"type":"Feature","geometry":{"type":"Point","coordinates":[7.847,5.12]},"properties":{"label":"Ghosts of Christmas","size":"770","ratings":"7.12068","complexity":"2.0","min_players":"3","max_players":"4","min_players_rec":"3","max_players_rec":"4","min_players_best":"3","max_players_best":"4","min_time":"40","max_time":"40","category":"1002","mechanic":"3006,2009","bayes_rating":"5.96026","id":281619,"parent":0}},{"type":"Feature","geometry":{"type":"Point","coordinates":[8.342,7.27]},"properties":{"label":"Long Shot: The Dice Game","size":"6658","ratings":"7.66958","complexity":"1.9185","min_players":"1","max_players":"8","min_players_rec":"1","max_players_rec":"8","min_players_best":"4","max_players_best":"6","min_time":"25","max_time":"25","category":"1017,1031,1038","mechanic":"2014,2072,2875,2055,2819,2874","bayes_rating":"7.14501","id":295374,"parent":0}},{"type":"Feature","geometry":{"type":"Point","coordinates":[9.446,7.64]},"properties":{"label":"Abandon All Artichokes","size":"4652","ratings":"6.63268","complexity":"1.2883","min_players":"2","max_players":"4","min_players_rec":"2","max_players_rec":"4","min_players_best":"4","max_players_best":"4","min_time":"20","max_time":"20","category":"1002,1013","mechanic":"2664,2041","bayes_rating":"6.27678","id":302260,"parent":0}},{"type":"Feature","geometry":{"type":"Point","coordinates":[8.981,7.6]},"properties":{"label":"Juicy Fruits","size":"2200","ratings":"7.05032","complexity":"2.0172","min_players":"1","max_players":"4","min_players_rec":"1","max_players_rec":"4","min_players_best":"3","max_players_best":"3","min_time":"20","max_time":"50","category":"1021,1013","mechanic":"2046,2912,2676,2002","bayes_rating":"6.29768","id":325698,"parent":0}},{"type":"Feature","geometry":{"type":"Point","coordinates":[10.673,6.35]},"properties":{"label":"Habitats","size":"1923","ratings":"7.37501","complexity":"2.1667","min_players":"1","max_players":"5","min_players_rec":"2","max_players_rec":"5","min_players_best":"3","max_players_best":"3","min_time":"30","max_time":"50","category":"1089,1084,1028,1086","mechanic":"2676,2959,2041,2048,2940,2002","bayes_rating":"6.4284","id":200853,"parent":0}},{"type":"Feature","geometry":{"type":"Point","coordinates":[8.233,6.94]},"properties":{"label":"Cat in the Box: Deluxe Edition","size":"6299","ratings":"7.62257","complexity":"1.9623","min_players":"2","max_players":"5","min_players_rec":"3","max_players_rec":"5","min_players_best":"4","max_players_best":"4","min_time":"20","max_time":"40","category":"1089,1002","mechanic":"2043,2040,3006,2009","bayes_rating":"7.09235","id":345972,"parent":0}},{"type":"Feature","geometry":{"type":"Point","coordinates":[8.314,7.43]},"properties":{"label":"Verdant","size":"4233","ratings":"7.39321","complexity":"2.0849","min_players":"1","max_players":"5","min_players_rec":"1","max_players_rec":"4","min_players_best":"2","max_players_best":"3","min_time":"45","max_time":"60","category":"1002,1084,1028","mechanic":"2041,2048,2004,2819,2002,2897","bayes_rating":"6.73873","id":334065,"parent":0}},{"type":"Feature","geometry":{"type":"Point","coordinates":[8.041,8.05]},"properties":{"label":"Dice Miner","size":"1891","ratings":"7.28708","complexity":"1.6757","min_players":"1","max_players":"4","min_players_rec":"1","max_players_rec":"4","min_players_best":"2","max_players_best":"3","min_time":"20","max_time":"30","category":"1017,1010","mechanic":"2072,2041,2015","bayes_rating":"6.34173","id":310632,"parent":0}},{"type":"Feature","geometry":{"type":"Point","coordinates":[7.933,7.28]},"properties":{"label":"Ready Set Bet","size":"3813","ratings":"7.63633","complexity":"1.2623","min_players":"2","max_players":"9","min_players_rec":"4","max_players_rec":"9","min_players_best":"6","max_players_best":"8","min_time":"45","max_time":"60","category":"1089,1030,1031,1037,1038","mechanic":"2014,2072,2831,2939","bayes_rating":"6.87519","id":351040,"parent":0}},{"type":"Feature","geometry":{"type":"Point","coordinates":[8.869,8.37]},"properties":{"label":"Floriferous","size":"1767","ratings":"7.52512","complexity":"1.6486","min_players":"1","max_players":"4","min_players_rec":"1","max_players_rec":"4","min_players_best":"3","max_players_best":"3","min_time":"20","max_time":"30","category":"1002","mechanic":"2041,2004,2819,2826","bayes_rating":"6.43889","id":322622,"parent":0}},{"type":"Feature","geometry":{"type":"Point","coordinates":[9.82,7.52]},"properties":{"label":"Ohanami","size":"3789","ratings":"7.29886","complexity":"1.1348","min_players":"2","max_players":"4","min_players_rec":"2","max_players_rec":"4","min_players_best":"3","max_players_best":"3","min_time":"20","max_time":"20","category":"1002,1098","mechanic":"2984,3101,2048,2004","bayes_rating":"6.65194","id":270314,"parent":0}},{"type":"Feature","geometry":{"type":"Point","coordinates":[9.751,7.18]},"properties":{"label":"Silver & Gold","size":"7839","ratings":"7.21072","complexity":"1.1667","min_players":"2","max_players":"4","min_players_rec":"2","max_players_rec":"4","min_players_best":"3","max_players_best":"4","min_time":"20","max_time":"20","category":"1022,1020","mechanic":"2999,2912,2875,2978,2055,2004","bayes_rating":"6.84673","id":270673,"parent":0}},{"type":"Feature","geometry":{"type":"Point","coordinates":[8.576,8.01]},"properties":{"label":"Picture Perfect","size":"1622","ratings":"7.02938","complexity":"1.8788","min_players":"2","max_players":"4","min_players_rec":"2","max_players_rec":"4","min_players_best":"2","max_players_best":"4","min_time":"50","max_time":"90","category":"1026,1028","mechanic":"2012,3002,2987,2047,2002,2897","bayes_rating":"6.18479","id":299963,"parent":0}},{"type":"Feature","geometry":{"type":"Point","coordinates":[9.933,6.9]},"properties":{"label":"Copenhagen","size":"3740","ratings":"6.98755","complexity":"1.6892","min_players":"2","max_players":"4","min_players_rec":"2","max_players_rec":"4","min_players_best":"4","max_players_best":"4","min_time":"20","max_time":"40","category":"1028","mechanic":"2040,2048,2002","bayes_rating":"6.45447","id":269595,"parent":0}},{"type":"Feature","geometry":{"type":"Point","coordinates":[9.342,7.83]},"properties":{"label":"Tussie Mussie","size":"4094","ratings":"6.94724","complexity":"1.1271","min_players":"2","max_players":"4","min_players_rec":"1","max_players_rec":"4","min_players_best":"2","max_players_best":"2","min_time":"20","max_time":"30","category":"1002,1120","mechanic":"2014,2906,2041,2004","bayes_rating":"6.45398","id":257614,"parent":0}},{"type":"Feature","geometry":{"type":"Point","coordinates":[9.186,6.38]},"properties":{"label":"Renature","size":"2242","ratings":"7.1088","complexity":"2.2222","min_players":"2","max_players":"4","min_players_rec":"2","max_players_rec":"4","min_players_best":"3","max_players_best":"3","min_time":"45","max_time":"60","category":"1084","mechanic":"2080,2043,2040,3007,2002","bayes_rating":"6.34189","id":300001,"parent":0}},{"type":"Feature","geometry":{"type":"Point","coordinates":[8.947,6.91]},"properties":{"label":"Mille Fiori","size":"3322","ratings":"7.43612","complexity":"2.1505","min_players":"2","max_players":"4","min_players_rec":"3","max_players_rec":"4","min_players_best":"4","max_players_best":"4","min_time":"60","max_time":"90","category":"1002,1088","mechanic":"2080,2984,2048","bayes_rating":"6.69154","id":346501,"parent":0}},{"type":"Feature","geometry":{"type":"Point","coordinates":[8.239,8.17]},"properties":{"label":"Paint the Roses","size":"2084","ratings":"7.24955","complexity":"2.4634","min_players":"2","max_players":"5","min_players_rec":"2","max_players_rec":"5","min_players_best":"4","max_players_best":"4","min_time":"50","max_time":"70","category":"1039,1010,1093,1028","mechanic":"2893,2023,3002,2026,2060,2002","bayes_rating":"6.33565","id":253759,"parent":0}},{"type":"Feature","geometry":{"type":"Point","coordinates":[9.094,7.97]},"properties":{"label":"Trekking the World","size":"2656","ratings":"7.11402","complexity":"1.9118","min_players":"2","max_players":"5","min_players_rec":"2","max_players_rec":"5","min_players_best":"4","max_players_best":"4","min_time":"30","max_time":"60","category":"1094,1084,1097","mechanic":"2912,2040,2041,2078,2004","bayes_rating":"6.39083","id":300442,"parent":0}},{"type":"Feature","geometry":{"type":"Point","coordinates":[8.411,6.84]},"properties":{"label":"The Guild of Merchant Explorers","size":"4068","ratings":"7.73207","complexity":"2.038","min_players":"1","max_players":"4","min_players_rec":"1","max_players_rec":"4","min_players_best":"2","max_players_best":"2","min_time":"45","max_time":"45","category":"1022,1020,1010,1008","mechanic":"2999,2026,2987,2039,2081,2946","bayes_rating":"6.9791","id":350933,"parent":0}},{"type":"Feature","geometry":{"type":"Point","coordinates":[8.671,7.18]},"properties":{"label":"Akropolis","size":"5929","ratings":"7.50623","complexity":"1.7881","min_players":"1","max_players":"4","min_players_rec":"2","max_players_rec":"4","min_players_best":"3","max_players_best":"3","min_time":"20","max_time":"30","category":"1050,1029,1086","mechanic":"2924,2875,3001,2041,2048,2002","bayes_rating":"6.95668","id":357563,"parent":0}},{"type":"Feature","geometry":{"type":"Point","coordinates":[9.822,7.67]},"properties":{"label":"Lucky Numbers","size":"2953","ratings":"6.33884","complexity":"1.1013","min_players":"1","max_players":"4","min_players_rec":"2","max_players_rec":"4","min_players_best":"3","max_players_best":"3","min_time":"20","max_time":"20","category":"1009,1098","mechanic":"2819,2002","bayes_rating":"5.97948","id":118247,"parent":0}},{"type":"Feature","geometry":{"type":"Point","coordinates":[8.601,6.87]},"properties":{"label":"First Rat","size":"2977","ratings":"7.61819","complexity":"2.2551","min_players":"1","max_players":"5","min_players_rec":"1","max_players_rec":"5","min_players_best":"3","max_players_best":"4","min_time":"30","max_time":"75","category":"1022,1089,1079,1113","mechanic":"2078,2004,2819","bayes_rating":"6.75076","id":347703,"parent":0}},{"type":"Feature","geometry":{"type":"Point","coordinates":[9.106,6.69]},"properties":{"label":"Fantastic Factories","size":"6313","ratings":"7.44395","complexity":"2.2143","min_players":"1","max_players":"5","min_players_rec":"1","max_players_rec":"5","min_players_best":"3","max_players_best":"3","min_time":"45","max_time":"60","category":"1002,1017,1088","mechanic":"2072,2040,3099,2041,2661,2870,2004,2020,2819,3100,2935","bayes_rating":"6.94579","id":216600,"parent":0}},{"type":"Feature","geometry":{"type":"Point","coordinates":[10.319,7.51]},"properties":{"label":"Metro X","size":"1800","ratings":"7.12854","complexity":"1.7391","min_players":"1","max_players":"6","min_players_rec":"1","max_players_rec":"6","min_players_best":"1","max_players_best":"2","min_time":"20","max_time":"20","category":"1098,1028,1034","mechanic":"2999,2081,2055,2819","bayes_rating":"6.27318","id":248861,"parent":0}},{"type":"Feature","geometry":{"type":"Point","coordinates":[8.566,6.71]},"properties":{"label":"Planet Unknown","size":"8291","ratings":"7.84054","complexity":"2.2105","min_players":"1","max_players":"6","min_players_rec":"1","max_players_rec":"6","min_players_best":"4","max_players_best":"4","min_time":"60","max_time":"80","category":"1029,1088,1028,1016,1113,1086","mechanic":"2850,2978,2987,2959,2081,2041,2048,2813,2020,2940,2884,3100,2849,2002,2828,2015","bayes_rating":"7.3435","id":258779,"parent":0}},{"type":"Feature","geometry":{"type":"Point","coordinates":[9.015,7.32]},"properties":{"label":"So Clover!","size":"7118","ratings":"7.59097","complexity":"1.1017","min_players":"3","max_players":"6","min_players_rec":"2","max_players_rec":"6","min_players_best":"3","max_players_best":"4","min_time":"30","max_time":"30","category":"1030,1025","mechanic":"2893,2023","bayes_rating":"7.1205","id":329839,"parent":0}},{"type":"Feature","geometry":{"type":"Point","coordinates":[8.663,8.46]},"properties":{"label":"boop","size":"1484","ratings":"7.1713","complexity":"1.4091","min_players":"2","max_players":"2","min_players_rec":"2","max_players_rec":"2","min_players_best":"2","max_players_best":"2","min_time":"20","max_time":"30","category":"1009,1089","mechanic":"2676,2048,3005,2940","bayes_rating":"6.18362","id":355433,"parent":0}},{"type":"Feature","geometry":{"type":"Point","coordinates":[9.464,8.27]},"properties":{"label":"Truffle Shuffle","size":"1268","ratings":"6.92139","complexity":"1.2963","min_players":"2","max_players":"4","min_players_rec":"2","max_players_rec":"4","min_players_best":"2","max_players_best":"4","min_time":"15","max_time":"30","category":"1002","mechanic":"2041,2004","bayes_rating":"6.0494","id":298060,"parent":0}},{"type":"Feature","geometry":{"type":"Point","coordinates":[10.274,6.96]},"properties":{"label":"Illusion","size":"4667","ratings":"6.73649","complexity":"1.0577","min_players":"2","max_players":"5","min_players_rec":"2","max_players_rec":"5","min_players_best":"4","max_players_best":"4","min_time":"15","max_time":"15","category":"1002","mechanic":"2060","bayes_rating":"6.35941","id":244995,"parent":0}},{"type":"Feature","geometry":{"type":"Point","coordinates":[8.841,7.08]},"properties":{"label":"Project L","size":"8637","ratings":"7.49613","complexity":"1.5698","min_players":"1","max_players":"4","min_players_rec":"1","max_players_rec":"4","min_players_best":"2","max_players_best":"3","min_time":"20","max_time":"40","category":"1009,1028,1101","mechanic":"2001,2041,2048,3103,2002","bayes_rating":"7.07208","id":260180,"parent":0}},{"type":"Feature","geometry":{"type":"Point","coordinates":[10.11,7.25]},"properties":{"label":"Circle the Wagons","size":"3401","ratings":"7.08259","complexity":"1.6364","min_players":"2","max_players":"2","min_players_rec":"1","max_players_rec":"2","min_players_best":"2","max_players_best":"2","min_time":"15","max_time":"15","category":"1055,1002,1029,1120","mechanic":"2912,3001,2041,2004,2002","bayes_rating":"6.49121","id":213266,"parent":0}},{"type":"Feature","geometry":{"type":"Point","coordinates":[8.594,7.89]},"properties":{"label":"My Shelfie","size":"1547","ratings":"6.5323","complexity":"1.4545","min_players":"2","max_players":"4","min_players_rec":"2","max_players_rec":"4","min_players_best":"2","max_players_best":"2","min_time":"30","max_time":"30","category":"1009","mechanic":"2875,2048,2004","bayes_rating":"5.94346","id":366456,"parent":0}},{"type":"Feature","geometry":{"type":"Point","coordinates":[7.948,7.84]},"properties":{"label":"Trekking Through History","size":"3215","ratings":"7.70476","complexity":"1.7634","min_players":"2","max_players":"4","min_players_rec":"1","max_players_rec":"4","min_players_best":"3","max_players_best":"3","min_time":"30","max_time":"60","category":"1022","mechanic":"2041,2004,2663","bayes_rating":"6.83342","id":353288,"parent":0}},{"type":"Feature","geometry":{"type":"Point","coordinates":[9.138,6.97]},"properties":{"label":"Santa Monica","size":"4151","ratings":"7.1855","complexity":"2.1417","min_players":"2","max_players":"4","min_players_rec":"2","max_players_rec":"4","min_players_best":"2","max_players_best":"2","min_time":"45","max_time":"45","category":"1029,1097","mechanic":"2956,2041,2004,2002","bayes_rating":"6.6129","id":298065,"parent":0}},{"type":"Feature","geometry":{"type":"Point","coordinates":[9.01,7.14]},"properties":{"label":"New York Zoo","size":"7642","ratings":"7.09766","complexity":"1.9524","min_players":"1","max_players":"5","min_players_rec":"1","max_players_rec":"4","min_players_best":"3","max_players_best":"3","min_time":"30","max_time":"60","category":"1009,1089,1028","mechanic":"2903,2978,2011,2876,2813,2002","bayes_rating":"6.7381","id":300877,"parent":0}},{"type":"Feature","geometry":{"type":"Point","coordinates":[8.171,8.39]},"properties":{"label":"Kites","size":"1600","ratings":"7.03906","complexity":"1.0938","min_players":"2","max_players":"6","min_players_rec":"2","max_players_rec":"6","min_players_best":"4","max_players_best":"6","min_time":"10","max_time":"10","category":"1037","mechanic":"2023","bayes_rating":"6.17699","id":348096,"parent":0}},{"type":"Feature","geometry":{"type":"Point","coordinates":[8.047,7.58]},"properties":{"label":"Evergreen","size":"1933","ratings":"7.49927","complexity":"2.0943","min_players":"1","max_players":"4","min_players_rec":"1","max_players_rec":"4","min_players_best":"2","max_players_best":"2","min_time":"45","max_time":"45","category":"1028","mechanic":"2957,2875,2041","bayes_rating":"6.46749","id":363307,"parent":0}},{"type":"Feature","geometry":{"type":"Point","coordinates":[9.315,8.43]},"properties":{"label":"Sonora","size":"1441","ratings":"6.89644","complexity":"2.1852","min_players":"1","max_players":"4","min_players_rec":"1","max_players_rec":"4","min_players_best":"1","max_players_best":"4","min_time":"30","max_time":"45","category":"1032,1089","mechanic":"2001,2080,2956,2043,2860,2081,2055,2004","bayes_rating":"6.08187","id":296626,"parent":0}},{"type":"Feature","geometry":{"type":"Point","coordinates":[9.453,5.24]},"properties":{"label":"Factory Funner","size":"1577","ratings":"7.18464","complexity":"2.3548","min_players":"1","max_players":"6","min_players_rec":"1","max_players_rec":"5","min_players_best":"4","max_players_best":"4","min_time":"20","max_time":"40","category":"1088,1028,1037","mechanic":"2026,2081,2831,2819,2002","bayes_rating":"6.25155","id":183284,"parent":0}},{"type":"Feature","geometry":{"type":"Point","coordinates":[7.54,7.9]},"properties":{"label":"Point City","size":"997","ratings":"7.33428","complexity":"1.6","min_players":"1","max_players":"4","min_players_rec":"1","max_players_rec":"4","min_players_best":"2","max_players_best":"2","min_time":"15","max_time":"30","category":"1002,1029","mechanic":"2041,2004","bayes_rating":"6.10037","id":368017,"parent":0}},{"type":"Feature","geometry":{"type":"Point","coordinates":[9.004,7.78]},"properties":{"label":"Next Station: London","size":"3842","ratings":"7.47699","complexity":"1.4839","min_players":"1","max_players":"4","min_players_rec":"1","max_players_rec":"4","min_players_best":"2","max_players_best":"4","min_time":"25","max_time":"30","category":"1029,1034","mechanic":"2883,2039,2081,2055","bayes_rating":"6.78038","id":353545,"parent":0}},{"type":"Feature","geometry":{"type":"Point","coordinates":[7.669,6.97]},"properties":{"label":"Foundations of Rome","size":"3056","ratings":"8.01868","complexity":"1.9681","min_players":"2","max_players":"4","min_players_rec":"2","max_players_rec":"5","min_players_best":"4","max_players_best":"4","min_time":"60","max_time":"90","category":"1050,1029,1021","mechanic":"2924,2902,2900,2911,2940,2002","bayes_rating":"6.96306","id":284189,"parent":0}},{"type":"Feature","geometry":{"type":"Point","coordinates":[8.793,6.39]},"properties":{"label":"Furnace","size":"10031","ratings":"7.42159","complexity":"2.2986","min_players":"2","max_players":"4","min_players_rec":"2","max_players_rec":"4","min_players_best":"3","max_players_best":"4","min_time":"30","max_time":"60","category":"1002,1021,1088,2710","mechanic":"3098,2931,2927,2012,2922,2041,2828,2015,2897","bayes_rating":"7.07904","id":318084,"parent":0}},{"type":"Feature","geometry":{"type":"Point","coordinates":[10.876,7.04]},"properties":{"label":"Drop It","size":"2734","ratings":"6.89377","complexity":"1.1087","min_players":"2","max_players":"4","min_players_rec":"2","max_players_rec":"4","min_players_best":"2","max_players_best":"4","min_time":"30","max_time":"30","category":"1032","mechanic":"","bayes_rating":"6.29674","id":244916,"parent":0}},{"type":"Feature","geometry":{"type":"Point","coordinates":[10.636,7.84]},"properties":{"label":"5211","size":"1683","ratings":"6.32854","complexity":"1.2121","min_players":"2","max_players":"5","min_players_rec":"2","max_players_rec":"5","min_players_best":"3","max_players_best":"4","min_time":"20","max_time":"30","category":"1002","mechanic":"2040,2060,2004","bayes_rating":"5.8729","id":271512,"parent":0}},{"type":"Feature","geometry":{"type":"Point","coordinates":[10.747,6.66]},"properties":{"label":"Dealt!","size":"1627","ratings":"7.07521","complexity":"1.4324","min_players":"3","max_players":"5","min_players_rec":"3","max_players_rec":"4","min_players_best":"4","max_players_best":"4","min_time":"30","max_time":"30","category":"1002","mechanic":"2040,2980,2821,2009","bayes_rating":"6.21098","id":243430,"parent":0}},{"type":"Feature","geometry":{"type":"Point","coordinates":[9.964,6.53]},"properties":{"label":"Luxor","size":"4572","ratings":"7.18958","complexity":"1.9044","min_players":"2","max_players":"4","min_players_rec":"2","max_players_rec":"4","min_players_best":"3","max_players_best":"4","min_time":"45","max_time":"45","category":"1022,1050","mechanic":"2072,2040,2011,2876,2035,2004,2939","bayes_rating":"6.64016","id":245643,"parent":0}},{"type":"Feature","geometry":{"type":"Point","coordinates":[10.902,5.99]},"properties":{"label":"Fuji Flush","size":"3184","ratings":"6.60602","complexity":"1.05","min_players":"3","max_players":"8","min_players_rec":"4","max_players_rec":"8","min_players_best":"6","max_players_best":"8","min_time":"10","max_time":"20","category":"1002,1098","mechanic":"2040,2686","bayes_rating":"6.16833","id":203430,"parent":0}},{"type":"Feature","geometry":{"type":"Point","coordinates":[10.688,7.01]},"properties":{"label":"Strike","size":"3671","ratings":"6.93532","complexity":"1.0315","min_players":"2","max_players":"5","min_players_rec":"2","max_players_rec":"5","min_players_best":"4","max_players_best":"4","min_time":"15","max_time":"15","category":"1032,1017","mechanic":"2072,2685,2661","bayes_rating":"6.40974","id":123570,"parent":0}},{"type":"Feature","geometry":{"type":"Point","coordinates":[9.563,7.46]},"properties":{"label":"Savannah Park","size":"1602","ratings":"7.09346","complexity":"1.6857","min_players":"1","max_players":"4","min_players_rec":"1","max_players_rec":"4","min_players_best":"2","max_players_best":"3","min_time":"20","max_time":"40","category":"1009,1089,1028","mechanic":"2843,2048,2823,2004,2819,2002","bayes_rating":"6.20158","id":339484,"parent":0}},{"type":"Feature","geometry":{"type":"Point","coordinates":[9.571,7.29]},"properties":{"label":"Trails of Tucana","size":"4339","ratings":"7.40156","complexity":"1.2617","min_players":"1","max_players":"8","min_players_rec":"1","max_players_rec":"9","min_players_best":"3","max_players_best":"5","min_time":"15","max_time":"15","category":"1020","mechanic":"2999,2883,2039,2081,2055,2819","bayes_rating":"6.78273","id":283864,"parent":0}},{"type":"Feature","geometry":{"type":"Point","coordinates":[9.748,5.68]},"properties":{"label":"Ginkgopolis","size":"7702","ratings":"7.5083","complexity":"2.9059","min_players":"1","max_players":"5","min_players_rec":"1","max_players_rec":"4","min_players_best":"2","max_players_best":"3","min_time":"45","max_time":"45","category":"1029,1084,1016,1086","mechanic":"2080,2984,2875,3001,2020,2819,2002,2828","bayes_rating":"7.08289","id":128271,"parent":0}},{"type":"Feature","geometry":{"type":"Point","coordinates":[9.179,7.31]},"properties":{"label":"7 Wonders: Architects","size":"9382","ratings":"7.04237","complexity":"1.3506","min_players":"2","max_players":"7","min_players_rec":"2","max_players_rec":"7","min_players_best":"4","max_players_best":"4","min_time":"25","max_time":"25","category":"1050","mechanic":"2041,2004,2015","bayes_rating":"6.72927","id":346703,"parent":0}},{"type":"Feature","geometry":{"type":"Point","coordinates":[11.304,5.44]},"properties":{"label":"Sanssouci","size":"1810","ratings":"7.13642","complexity":"2.1159","min_players":"2","max_players":"4","min_players_rec":"2","max_players_rec":"4","min_players_best":"2","max_players_best":"2","min_time":"30","max_time":"45","category":"2726,1028","mechanic":"2040,2048,2002","bayes_rating":"6.26441","id":146816,"parent":0}},{"type":"Feature","geometry":{"type":"Point","coordinates":[9.307,6.82]},"properties":{"label":"Nova Luna","size":"8012","ratings":"7.29286","complexity":"1.8772","min_players":"1","max_players":"4","min_players_rec":"1","max_players_rec":"4","min_players_best":"2","max_players_best":"2","min_time":"30","max_time":"60","category":"1009,1028","mechanic":"2912,2876,2002,2663","bayes_rating":"6.89511","id":284435,"parent":0}},{"type":"Feature","geometry":{"type":"Point","coordinates":[10.532,6.05]},"properties":{"label":"Linko","size":"4970","ratings":"6.99258","complexity":"1.3884","min_players":"2","max_players":"5","min_players_rec":"2","max_players_rec":"5","min_players_best":"4","max_players_best":"4","min_time":"20","max_time":"20","category":"1002","mechanic":"2040,2962,2041,2004,2686","bayes_rating":"6.55371","id":153065,"parent":0}},{"type":"Feature","geometry":{"type":"Point","coordinates":[9.808,6.59]},"properties":{"label":"Reef","size":"9434","ratings":"7.02049","complexity":"1.8023","min_players":"2","max_players":"4","min_players_rec":"2","max_players_rec":"4","min_players_best":"2","max_players_best":"4","min_time":"30","max_time":"45","category":"1009,1089","mechanic":"2040,3001,2048,2002","bayes_rating":"6.73","id":244228,"parent":0}},{"type":"Feature","geometry":{"type":"Point","coordinates":[9.596,5.97]},"properties":{"label":"Crown of Emara","size":"3696","ratings":"7.39389","complexity":"3.0536","min_players":"1","max_players":"4","min_players_rec":"1","max_players_rec":"4","min_players_best":"3","max_players_best":"3","min_time":"45","max_time":"75","category":"1021,1035","mechanic":"2689,2912,2850,2040,2889,2011,2813,2819,2082","bayes_rating":"6.70884","id":256570,"parent":0}},{"type":"Feature","geometry":{"type":"Point","coordinates":[9.365,6.23]},"properties":{"label":"The Castles of Tuscany","size":"3058","ratings":"7.24694","complexity":"2.2198","min_players":"2","max_players":"4","min_players_rec":"2","max_players_rec":"4","min_players_best":"3","max_players_best":"3","min_time":"45","max_time":"60","category":"1088,1070,1086","mechanic":"2978,2026,2011,2004,2002,2897","bayes_rating":"6.54282","id":300327,"parent":0}},{"type":"Feature","geometry":{"type":"Point","coordinates":[9.713,7.36]},"properties":{"label":"CuBirds","size":"6465","ratings":"6.93085","complexity":"1.3082","min_players":"2","max_players":"5","min_players_rec":"2","max_players_rec":"5","min_players_best":"3","max_players_best":"3","min_time":"20","max_time":"20","category":"1089,1002","mechanic":"2040,2004","bayes_rating":"6.55111","id":245476,"parent":0}},{"type":"Feature","geometry":{"type":"Point","coordinates":[9.209,8.31]},"properties":{"label":"Tranquility","size":"2802","ratings":"6.97939","complexity":"1.338","min_players":"1","max_players":"5","min_players_rec":"1","max_players_rec":"4","min_players_best":"2","max_players_best":"2","min_time":"15","max_time":"20","category":"1002,1008,1098","mechanic":"2893,2023,2040,2819,2002","bayes_rating":"6.3278","id":288513,"parent":0}},{"type":"Feature","geometry":{"type":"Point","coordinates":[9.541,6.16]},"properties":{"label":"Carpe Diem","size":"7509","ratings":"7.51944","complexity":"2.5082","min_players":"2","max_players":"4","min_players_rec":"2","max_players_rec":"4","min_players_best":"3","max_players_best":"3","min_time":"45","max_time":"75","category":"1050","mechanic":"2046,2912,2875,2041,2002,2828,2897","bayes_rating":"7.06672","id":245934,"parent":0}},{"type":"Feature","geometry":{"type":"Point","coordinates":[10.527,6.66]},"properties":{"label":"Marrakech","size":"5017","ratings":"6.68933","complexity":"1.35","min_players":"2","max_players":"4","min_players_rec":"2","max_players_rec":"4","min_players_best":"4","max_players_best":"4","min_time":"30","max_time":"30","category":"1052","mechanic":"2080,3001,2035,2002","bayes_rating":"6.32354","id":29223,"parent":0}},{"type":"Feature","geometry":{"type":"Point","coordinates":[8.141,7.28]},"properties":{"label":"Turing Machine","size":"5510","ratings":"7.75046","complexity":"2.4194","min_players":"1","max_players":"4","min_players_rec":"1","max_players_rec":"4","min_players_best":"1","max_players_best":"1","min_time":"20","max_time":"20","category":"1039,1104,1081","mechanic":"3002,2819","bayes_rating":"7.09893","id":356123,"parent":0}},{"type":"Feature","geometry":{"type":"Point","coordinates":[11.193,7.1]},"properties":{"label":"Roll to the Top!","size":"1365","ratings":"6.75741","complexity":"1.0","min_players":"2","max_players":"5","min_players_rec":"2","max_players_rec":"5","min_players_best":"2","max_players_best":"5","min_time":"15","max_time":"25","category":"1017","mechanic":"2999,2072,2055,2876","bayes_rating":"6.00043","id":240225,"parent":0}},{"type":"Feature","geometry":{"type":"Point","coordinates":[10.189,7.13]},"properties":{"label":"Walking in Burano","size":"2682","ratings":"7.11365","complexity":"2.0135","min_players":"1","max_players":"4","min_players_rec":"1","max_players_rec":"4","min_players_best":"3","max_players_best":"3","min_time":"20","max_time":"40","category":"1002,1029,1097","mechanic":"2875,2041,2004,2819,2002","bayes_rating":"6.40231","id":257769,"parent":0}},{"type":"Feature","geometry":{"type":"Point","coordinates":[10.29,5.59]},"properties":{"label":"Gold West","size":"3043","ratings":"7.315","complexity":"2.4632","min_players":"2","max_players":"4","min_players_rec":"2","max_players_rec":"4","min_players_best":"3","max_players_best":"3","min_time":"45","max_time":"60","category":"1055,1021,1086","mechanic":"2080,2912,2955,2011,2081,2004","bayes_rating":"6.59952","id":154086,"parent":0}},{"type":"Feature","geometry":{"type":"Point","coordinates":[8.473,7.03]},"properties":{"label":"Cubitos","size":"8131","ratings":"7.42998","complexity":"2.1829","min_players":"2","max_players":"4","min_players_rec":"2","max_players_rec":"4","min_players_best":"4","max_players_best":"4","min_time":"30","max_time":"60","category":"1017,1031","mechanic":"2887,2664,2901,2072,2900,2661,2876,2870,2897","bayes_rating":"7.01181","id":298069,"parent":0}},{"type":"Feature","geometry":{"type":"Point","coordinates":[10.604,5.02]},"properties":{"label":"Valletta","size":"1599","ratings":"6.98253","complexity":"2.3488","min_players":"2","max_players":"4","min_players_rec":"2","max_players_rec":"4","min_players_best":"3","max_players_best":"3","min_time":"40","max_time":"80","category":"1029,1070","mechanic":"2664,2040,2011,2686","bayes_rating":"6.16678","id":218920,"parent":0}},{"type":"Feature","geometry":{"type":"Point","coordinates":[11.637,5.96]},"properties":{"label":"Animals on Board","size":"2151","ratings":"6.53659","complexity":"1.5161","min_players":"2","max_players":"4","min_players_rec":"3","max_players_rec":"4","min_players_best":"4","max_players_best":"4","min_time":"15","max_time":"30","category":"1089","mechanic":"2906,2004","bayes_rating":"6.0378","id":191572,"parent":0}},{"type":"Feature","geometry":{"type":"Point","coordinates":[7.833,8.06]},"properties":{"label":"Wandering Towers","size":"1736","ratings":"7.35833","complexity":"1.625","min_players":"2","max_players":"6","min_players_rec":"3","max_players_rec":"6","min_players_best":"4","max_players_best":"5","min_time":"30","max_time":"30","category":"1010,1045","mechanic":"2040,2047,2876,2819,2988","bayes_rating":"6.33327","id":355483,"parent":0}},{"type":"Feature","geometry":{"type":"Point","coordinates":[8.625,7.03]},"properties":{"label":"Azul: Queen's Garden","size":"4288","ratings":"7.5076","complexity":"2.9444","min_players":"2","max_players":"4","min_players_rec":"2","max_players_rec":"4","min_players_best":"2","max_players_best":"2","min_time":"45","max_time":"60","category":"1009,1028,1070","mechanic":"2875,2048,2004,2002,2829","bayes_rating":"6.81403","id":346965,"parent":0}},{"type":"Feature","geometry":{"type":"Point","coordinates":[8.829,7.28]},"properties":{"label":"Living Forest","size":"5579","ratings":"7.28007","complexity":"2.1966","min_players":"1","max_players":"4","min_players_rec":"2","max_players_rec":"4","min_players_best":"3","max_players_best":"3","min_time":"40","max_time":"40","category":"1050,1089,1002,1084,1010,1082,1086","mechanic":"2664,2661,2876,2020,2002","bayes_rating":"6.76209","id":328479,"parent":0}},{"type":"Feature","geometry":{"type":"Point","coordinates":[11.529,5.34]},"properties":{"label":"Saint Malo","size":"2347","ratings":"6.45","complexity":"1.9","min_players":"2","max_players":"5","min_players_rec":"2","max_players_rec":"4","min_players_best":"2","max_players_best":"2","min_time":"45","max_time":"45","category":"1029,1017","mechanic":"2072,2039,2055,2870","bayes_rating":"6.01498","id":117960,"parent":0}},{"type":"Feature","geometry":{"type":"Point","coordinates":[12.463,5.43]},"properties":{"label":"Lost Legacy: The Starship","size":"2682","ratings":"6.59391","complexity":"1.2696","min_players":"2","max_players":"4","min_players_rec":"2","max_players_rec":"4","min_players_best":"4","max_players_best":"4","min_time":"10","max_time":"10","category":"1023,1002,1039,1016","mechanic":"2040,2047,2685","bayes_rating":"6.11918","id":158339,"parent":0}},{"type":"Feature","geometry":{"type":"Point","coordinates":[13.233,5.45]},"properties":{"label":"Lost Legacy: Flying Garden","size":"1656","ratings":"6.69284","complexity":"1.3333","min_players":"2","max_players":"4","min_players_rec":"2","max_players_rec":"4","min_players_best":"2","max_players_best":"4","min_time":"10","max_time":"10","category":"1023,1002,1039","mechanic":"2040,2047,2685","bayes_rating":"6.03763","id":158340,"parent":0}},{"type":"Feature","geometry":{"type":"Point","coordinates":[13.339,5.1]},"properties":{"label":"Lost Legacy: Second Chronicle - Vorpal Sword & Whitegold Spire","size":"700","ratings":"6.80063","complexity":"1.2917","min_players":"2","max_players":"6","min_players_rec":"2","max_players_rec":"6","min_players_best":"2","max_players_best":"6","min_time":"10","max_time":"10","category":"1023,1002,1039","mechanic":"2040,2047,2685","bayes_rating":"5.83917","id":173319,"parent":0}},{"type":"Feature","geometry":{"type":"Point","coordinates":[11.256,5.61]},"properties":{"label":"Valley of the Kings","size":"4799","ratings":"7.01539","complexity":"2.1786","min_players":"2","max_players":"4","min_players_rec":"2","max_players_rec":"4","min_players_best":"2","max_players_best":"2","min_time":"45","max_time":"45","category":"1050,1002,1082,1115","mechanic":"2664,2040,2041,2004","bayes_rating":"6.56047","id":150999,"parent":0}},{"type":"Feature","geometry":{"type":"Point","coordinates":[11.488,5.13]},"properties":{"label":"Guildhall","size":"4127","ratings":"6.8891","complexity":"2.067","min_players":"2","max_players":"4","min_players_rec":"2","max_players_rec":"4","min_players_best":"2","max_players_best":"4","min_time":"30","max_time":"45","category":"1002,1035","mechanic":"2040,2004,2686","bayes_rating":"6.43022","id":132372,"parent":0}},{"type":"Feature","geometry":{"type":"Point","coordinates":[13.829,5.32]},"properties":{"label":"Cypher","size":"676","ratings":"5.93221","complexity":"1.5","min_players":"2","max_players":"4","min_players_rec":"2","max_players_rec":"4","min_players_best":"3","max_players_best":"4","min_time":"10","max_time":"25","category":"1002,1016","mechanic":"2040,2041","bayes_rating":"5.60312","id":163354,"parent":0}},{"type":"Feature","geometry":{"type":"Point","coordinates":[12.526,5.28]},"properties":{"label":"Council of Verona","size":"1895","ratings":"6.29061","complexity":"1.3857","min_players":"2","max_players":"5","min_players_rec":"2","max_players_rec":"5","min_players_best":"3","max_players_best":"3","min_time":"20","max_time":"20","category":"1023,1002,1039,1093,1070","mechanic":"2012,2040,2041","bayes_rating":"5.87495","id":140863,"parent":0}},{"type":"Feature","geometry":{"type":"Point","coordinates":[12.697,5.15]},"properties":{"label":"Cheaty Mages!","size":"2066","ratings":"6.24478","complexity":"1.5905","min_players":"3","max_players":"6","min_players_rec":"3","max_players_rec":"6","min_players_best":"4","max_players_best":"4","min_time":"30","max_time":"30","category":"1002,1010","mechanic":"2014,2040,2686","bayes_rating":"5.86918","id":38194,"parent":0}},{"type":"Feature","geometry":{"type":"Point","coordinates":[10.965,5.55]},"properties":{"label":"Viceroy","size":"5579","ratings":"6.79285","complexity":"2.6404","min_players":"1","max_players":"4","min_players_rec":"2","max_players_rec":"4","min_players_best":"3","max_players_best":"3","min_time":"45","max_time":"60","category":"1023,1002,1029,1015,1010,1026","mechanic":"2920,2040,2047,2041,2004,2002","bayes_rating":"6.43981","id":157526,"parent":0}},{"type":"Feature","geometry":{"type":"Point","coordinates":[12.859,5.12]},"properties":{"label":"Rent a Hero","size":"1766","ratings":"6.31363","complexity":"1.4627","min_players":"3","max_players":"5","min_players_rec":"3","max_players_rec":"5","min_players_best":"3","max_players_best":"4","min_time":"20","max_time":"30","category":"1023,1002,1039,1010","mechanic":"3002,2040,2004,2686","bayes_rating":"5.87545","id":135116,"parent":0}},{"type":"Feature","geometry":{"type":"Point","coordinates":[12.433,5.61]},"properties":{"label":"Eminent Domain: Microcosm","size":"1680","ratings":"6.35056","complexity":"1.9747","min_players":"2","max_players":"2","min_players_rec":"2","max_players_rec":"2","min_players_best":"2","max_players_best":"2","min_time":"15","max_time":"15","category":"1002,1015,1120,1016,1113","mechanic":"2839,2664,2040,2041","bayes_rating":"5.88896","id":163640,"parent":0}},{"type":"Feature","geometry":{"type":"Point","coordinates":[11.634,4.8]},"properties":{"label":"Greed","size":"2328","ratings":"6.64492","complexity":"2.0091","min_players":"2","max_players":"5","min_players_rec":"2","max_players_rec":"5","min_players_best":"4","max_players_best":"4","min_time":"30","max_time":"30","category":"1002,1033","mechanic":"2984,2875,2040,2020,3100,2686,2826","bayes_rating":"6.11672","id":151247,"parent":0}},{"type":"Feature","geometry":{"type":"Point","coordinates":[12.254,5.95]},"properties":{"label":"Pairs","size":"2298","ratings":"6.32929","complexity":"1.1373","min_players":"2","max_players":"8","min_players_rec":"3","max_players_rec":"8","min_players_best":"5","max_players_best":"6","min_time":"15","max_time":"15","category":"1002","mechanic":"2661,2823,2821","bayes_rating":"5.92999","id":152237,"parent":0}},{"type":"Feature","geometry":{"type":"Point","coordinates":[10.872,5.71]},"properties":{"label":"Discoveries: The Journals of Lewis & Clark","size":"4886","ratings":"7.03388","complexity":"2.3618","min_players":"2","max_players":"4","min_players_rec":"2","max_players_rec":"4","min_players_best":"3","max_players_best":"3","min_time":"60","max_time":"60","category":"1055,1017","mechanic":"2912,2664,2072,2004,2082,2935","bayes_rating":"6.58225","id":171669,"parent":0}},{"type":"Feature","geometry":{"type":"Point","coordinates":[11.28,5.94]},"properties":{"label":"Medieval Academy","size":"3970","ratings":"6.94146","complexity":"1.811","min_players":"2","max_players":"5","min_players_rec":"3","max_players_rec":"5","min_players_best":"4","max_players_best":"5","min_time":"30","max_time":"30","category":"1002,1035","mechanic":"2080,2984,2040,2011,2020,2897","bayes_rating":"6.45919","id":154386,"parent":0}},{"type":"Feature","geometry":{"type":"Point","coordinates":[11.517,4.49]},"properties":{"label":"Impulse","size":"2140","ratings":"6.81373","complexity":"3.0385","min_players":"2","max_players":"6","min_players_rec":"2","max_players_rec":"4","min_players_best":"3","max_players_best":"3","min_time":"30","max_time":"60","category":"1023,1002,1021,1046,1016,1113","mechanic":"2689,2080,2857,2676,2040,2011,2964,2685,2876,2019,2079,2015,2897","bayes_rating":"6.18639","id":144239,"parent":0}},{"type":"Feature","geometry":{"type":"Point","coordinates":[11.621,6.26]},"properties":{"label":"Witness","size":"2685","ratings":"7.24798","complexity":"1.5","min_players":"4","max_players":"4","min_players_rec":"4","max_players_rec":"4","min_players_best":"4","max_players_best":"4","min_time":"15","max_time":"15","category":"1116,1039,1045,1040","mechanic":"2893,2023,2047,2027","bayes_rating":"6.50198","id":164265,"parent":0}},{"type":"Feature","geometry":{"type":"Point","coordinates":[11.431,5.67]},"properties":{"label":"Artifacts, Inc","size":"3284","ratings":"6.75508","complexity":"2.1667","min_players":"2","max_players":"4","min_players_rec":"2","max_players_rec":"4","min_players_best":"2","max_players_best":"4","min_time":"60","max_time":"60","category":"1022,1002,1021,1020","mechanic":"2001,2080,2072,2041,2004,2082,2935","bayes_rating":"6.27703","id":168609,"parent":0}},{"type":"Feature","geometry":{"type":"Point","coordinates":[11.475,5.48]},"properties":{"label":"Favor of the Pharaoh","size":"2956","ratings":"6.79574","complexity":"2.0","min_players":"2","max_players":"4","min_players_rec":"2","max_players_rec":"4","min_players_best":"2","max_players_best":"2","min_time":"45","max_time":"45","category":"1017","mechanic":"2664,2072,2870","bayes_rating":"6.26401","id":171011,"parent":0}},{"type":"Feature","geometry":{"type":"Point","coordinates":[12.921,5.44]},"properties":{"label":"Coin Age","size":"1939","ratings":"6.00159","complexity":"1.3386","min_players":"2","max_players":"2","min_players_rec":"2","max_players_rec":"2","min_players_best":"2","max_players_best":"2","min_time":"15","max_time":"15","category":"1009,1120","mechanic":"2080,2046,2661","bayes_rating":"5.72396","id":146130,"parent":0}},{"type":"Feature","geometry":{"type":"Point","coordinates":[13.462,5.96]},"properties":{"label":"Dragon Slayer","size":"1727","ratings":"5.60201","complexity":"1.0795","min_players":"2","max_players":"5","min_players_rec":"2","max_players_rec":"5","min_players_best":"2","max_players_best":"5","min_time":"15","max_time":"15","category":"1017,1010,1046","mechanic":"2014,2072,2661","bayes_rating":"5.52557","id":158243,"parent":0}},{"type":"Feature","geometry":{"type":"Point","coordinates":[11.015,4.98]},"properties":{"label":"Legacy: The Testament of Duke de Crecy","size":"4317","ratings":"7.13258","complexity":"2.7124","min_players":"1","max_players":"4","min_players_rec":"1","max_players_rec":"4","min_players_best":"1","max_players_best":"4","min_time":"60","max_time":"60","category":"2726,1002,1021","mechanic":"2875,2040,2041,2004,2819,2828,2082,2933","bayes_rating":"6.6058","id":52461,"parent":0}},{"type":"Feature","geometry":{"type":"Point","coordinates":[10.618,5.24]},"properties":{"label":"Spyrium","size":"6266","ratings":"7.0442","complexity":"2.8921","min_players":"2","max_players":"5","min_players_rec":"2","max_players_rec":"5","min_players_best":"4","max_players_best":"4","min_time":"75","max_time":"75","category":"1029,1021,1088,1016","mechanic":"2932,2850,2902,2082","bayes_rating":"6.66185","id":137269,"parent":0}},{"type":"Feature","geometry":{"type":"Point","coordinates":[10.515,5.65]},"properties":{"label":"La Isla","size":"5535","ratings":"6.86629","complexity":"2.2528","min_players":"2","max_players":"4","min_players_rec":"2","max_players_rec":"4","min_players_best":"4","max_players_best":"4","min_time":"30","max_time":"60","category":"1089","mechanic":"2689,2013,2043,2040,2011,3099,2004,2020","bayes_rating":"6.4945","id":154246,"parent":0}},{"type":"Feature","geometry":{"type":"Point","coordinates":[7.964,4.62]},"properties":{"label":"9 Lives","size":"457","ratings":"7.14212","complexity":"1.4286","min_players":"3","max_players":"4","min_players_rec":"3","max_players_rec":"4","min_players_best":"3","max_players_best":"4","min_time":"20","max_time":"30","category":"1089,1002","mechanic":"2009","bayes_rating":"5.81886","id":189190,"parent":0}},{"type":"Feature","geometry":{"type":"Point","coordinates":[9.554,6.48]},"properties":{"label":"Century: A New World","size":"4835","ratings":"7.32865","complexity":"2.1237","min_players":"2","max_players":"4","min_players_rec":"2","max_players_rec":"4","min_players_best":"3","max_players_best":"3","min_time":"30","max_time":"45","category":"1070","mechanic":"2839,2912,2004,2897,2082","bayes_rating":"6.75946","id":270970,"parent":0}},{"type":"Feature","geometry":{"type":"Point","coordinates":[9.749,6.22]},"properties":{"label":"Century: Eastern Wonders","size":"7344","ratings":"7.12449","complexity":"2.1159","min_players":"2","max_players":"4","min_players_rec":"2","max_players_rec":"4","min_players_best":"4","max_players_best":"4","min_time":"30","max_time":"45","category":"1008","mechanic":"2912,2676,2011,2007,2078,2004","bayes_rating":"6.74078","id":242574,"parent":0}},{"type":"Feature","geometry":{"type":"Point","coordinates":[10.192,6.24]},"properties":{"label":"Majesty: For the Realm","size":"6283","ratings":"6.93721","complexity":"1.7229","min_players":"2","max_players":"4","min_players_rec":"2","max_players_rec":"4","min_players_best":"4","max_players_best":"4","min_time":"20","max_time":"40","category":"1002,1035","mechanic":"2924,2041,2004,2874","bayes_rating":"6.57082","id":230080,"parent":0}},{"type":"Feature","geometry":{"type":"Point","coordinates":[9.615,5.6]},"properties":{"label":"Altiplano","size":"8963","ratings":"7.46976","complexity":"3.2967","min_players":"2","max_players":"5","min_players_rec":"2","max_players_rec":"4","min_players_best":"3","max_players_best":"3","min_time":"60","max_time":"120","category":"1021","mechanic":"2001,2912,2664,2011,2041,2002,2828,2015,2897","bayes_rating":"7.07289","id":234487,"parent":0}},{"type":"Feature","geometry":{"type":"Point","coordinates":[10.126,6.62]},"properties":{"label":"Dragon Castle","size":"7635","ratings":"7.12993","complexity":"1.9716","min_players":"1","max_players":"4","min_players_rec":"2","max_players_rec":"4","min_players_best":"2","max_players_best":"2","min_time":"30","max_time":"45","category":"1009","mechanic":"2875,3001,2041,2048,2060,2002,2015,2897","bayes_rating":"6.75588","id":232219,"parent":0}},{"type":"Feature","geometry":{"type":"Point","coordinates":[9.653,6.87]},"properties":{"label":"Twice as Clever!","size":"8674","ratings":"7.44596","complexity":"2.2775","min_players":"1","max_players":"4","min_players_rec":"1","max_players_rec":"4","min_players_best":"2","max_players_best":"2","min_time":"30","max_time":"30","category":"1017,1098","mechanic":"2072,2055,2870,2819","bayes_rating":"7.05607","id":269210,"parent":0}},{"type":"Feature","geometry":{"type":"Point","coordinates":[9.788,5.9]},"properties":{"label":"Santa Maria","size":"6821","ratings":"7.47935","complexity":"3.0386","min_players":"1","max_players":"4","min_players_rec":"1","max_players_rec":"4","min_players_best":"3","max_players_best":"3","min_time":"45","max_time":"90","category":"1015,1013","mechanic":"2072,2081,2041,2004,2002,2015","bayes_rating":"7.00796","id":229220,"parent":0}},{"type":"Feature","geometry":{"type":"Point","coordinates":[9.096,5.54]},"properties":{"label":"Blackout: Hong Kong","size":"5800","ratings":"7.43753","complexity":"3.4809","min_players":"1","max_players":"4","min_players_rec":"1","max_players_rec":"4","min_players_best":"3","max_players_best":"3","min_time":"75","max_time":"150","category":"1021,1020","mechanic":"2080,2664,2072,2040,2081,2041,2819,2874","bayes_rating":"6.91791","id":262215,"parent":0}},{"type":"Feature","geometry":{"type":"Point","coordinates":[8.775,6.74]},"properties":{"label":"Aquatica","size":"5784","ratings":"7.38116","complexity":"2.2923","min_players":"1","max_players":"4","min_players_rec":"2","max_players_rec":"4","min_players_best":"3","max_players_best":"3","min_time":"30","max_time":"60","category":"1002,1010,1008","mechanic":"2839,2664,2040,2041,3005,2819,2015","bayes_rating":"6.88794","id":283393,"parent":0}},{"type":"Feature","geometry":{"type":"Point","coordinates":[9.425,5.63]},"properties":{"label":"Pulsar 2849","size":"8647","ratings":"7.66859","complexity":"3.3534","min_players":"2","max_players":"4","min_players_rec":"2","max_players_rec":"4","min_players_best":"4","max_players_best":"4","min_time":"60","max_time":"90","category":"1017,1016,1113","mechanic":"2072,2041,2078,2935","bayes_rating":"7.22875","id":228341,"parent":0}},{"type":"Feature","geometry":{"type":"Point","coordinates":[8.694,5.6]},"properties":{"label":"Tekhenu: Obelisk of the Sun","size":"5602","ratings":"7.7214","complexity":"4.0649","min_players":"1","max_players":"4","min_players_rec":"1","max_players_rec":"4","min_players_best":"3","max_players_best":"3","min_time":"60","max_time":"120","category":"1050,1017,1082","mechanic":"2838,2902,2041,2048,2826,2897","bayes_rating":"7.09973","id":297030,"parent":0}},{"type":"Feature","geometry":{"type":"Point","coordinates":[9.42,6.69]},"properties":{"label":"Dice Hospital","size":"6220","ratings":"7.13207","complexity":"2.2993","min_players":"1","max_players":"4","min_players_rec":"1","max_players_rec":"4","min_players_best":"3","max_players_best":"3","min_time":"45","max_time":"90","category":"1017,2145","mechanic":"2838,2001,2072,2026,2906,2011,2819,2079","bayes_rating":"6.70577","id":218121,"parent":0}},{"type":"Feature","geometry":{"type":"Point","coordinates":[9.575,6.73]},"properties":{"label":"Ishtar: Gardens of Babylon","size":"2983","ratings":"7.01344","complexity":"2.25","min_players":"2","max_players":"4","min_players_rec":"2","max_players_rec":"4","min_players_best":"3","max_players_best":"3","min_time":"45","max_time":"45","category":"1050","mechanic":"2080,2813,2002","bayes_rating":"6.37331","id":271088,"parent":0}},{"type":"Feature","geometry":{"type":"Point","coordinates":[9.177,7.14]},"properties":{"label":"Mariposas","size":"4736","ratings":"6.82595","complexity":"2.1667","min_players":"2","max_players":"5","min_players_rec":"2","max_players_rec":"5","min_players_best":"3","max_players_best":"4","min_time":"45","max_time":"75","category":"1089,1084","mechanic":"2676,2026,2947,2004,2826","bayes_rating":"6.41019","id":297978,"parent":0}},{"type":"Feature","geometry":{"type":"Point","coordinates":[8.764,6.17]},"properties":{"label":"Praga Caput Regni","size":"8254","ratings":"7.92463","complexity":"3.7419","min_players":"1","max_players":"4","min_players_rec":"1","max_players_rec":"4","min_players_best":"3","max_players_best":"3","min_time":"45","max_time":"150","category":"1029,1035,1028","mechanic":"2080,2043,2875,2026,2902,2944,2002,2939,2897","bayes_rating":"7.41097","id":308765,"parent":0}},{"type":"Feature","geometry":{"type":"Point","coordinates":[8.769,6.59]},"properties":{"label":"Imperial Settlers: Empires of the North","size":"7138","ratings":"7.44372","complexity":"2.7946","min_players":"1","max_players":"4","min_players_rec":"1","max_players_rec":"3","min_players_best":"2","max_players_best":"2","min_time":"45","max_time":"90","category":"1050,1002,1029,1015,1020,1008","mechanic":"2040,2686,2015,2082","bayes_rating":"6.98002","id":270844,"parent":0}},{"type":"Feature","geometry":{"type":"Point","coordinates":[9.897,6.27]},"properties":{"label":"Ex Libris","size":"6434","ratings":"7.1387","complexity":"2.5357","min_players":"1","max_players":"4","min_players_rec":"1","max_players_rec":"4","min_players_best":"3","max_players_best":"3","min_time":"45","max_time":"45","category":"1002,1010","mechanic":"2040,2041,2004,2819,2002,2015,2082","bayes_rating":"6.71558","id":201825,"parent":0}},{"type":"Feature","geometry":{"type":"Point","coordinates":[9.235,6.71]},"properties":{"label":"Raccoon Tycoon","size":"4439","ratings":"7.28722","complexity":"2.1538","min_players":"2","max_players":"5","min_players_rec":"3","max_players_rec":"5","min_players_best":"4","max_players_best":"4","min_time":"60","max_time":"90","category":"1089,1021","mechanic":"2919,2012,2013,2900,2004","bayes_rating":"6.6955","id":254386,"parent":0}},{"type":"Feature","geometry":{"type":"Point","coordinates":[8.962,6.19]},"properties":{"label":"The Magnificent","size":"3612","ratings":"7.52557","complexity":"3.1302","min_players":"1","max_players":"4","min_players_rec":"1","max_players_rec":"4","min_players_best":"1","max_players_best":"4","min_time":"60","max_time":"90","category":"1017,1021","mechanic":"2912,2072,2875,2978,2947,2041,2004,2819,2940,2002,2939,2826,2015,2935","bayes_rating":"6.77492","id":283863,"parent":0}},{"type":"Feature","geometry":{"type":"Point","coordinates":[9.761,6.98]},"properties":{"label":"Little Town","size":"3809","ratings":"7.19032","complexity":"1.9189","min_players":"2","max_players":"4","min_players_rec":"2","max_players_rec":"4","min_players_best":"3","max_players_best":"4","min_time":"30","max_time":"60","category":"1029,1035","mechanic":"2912,2002,2082","bayes_rating":"6.57264","id":241266,"parent":0}},{"type":"Feature","geometry":{"type":"Point","coordinates":[10.351,5.79]},"properties":{"label":"Via Nebula","size":"4498","ratings":"7.03107","complexity":"2.2381","min_players":"2","max_players":"4","min_players_rec":"2","max_players_rec":"4","min_players_best":"3","max_players_best":"4","min_time":"45","max_time":"60","category":"1086,1011","mechanic":"2001,2026,2081,2007","bayes_rating":"6.55076","id":191231,"parent":0}},{"type":"Feature","geometry":{"type":"Point","coordinates":[8.062,6.88]},"properties":{"label":"Red Rising","size":"7404","ratings":"7.0251","complexity":"2.2906","min_players":"1","max_players":"6","min_players_rec":"1","max_players_rec":"4","min_players_best":"3","max_players_best":"3","min_time":"45","max_time":"60","category":"1002,1093,1016","mechanic":"2072,2875,2040,2041,2004,2819,2686,2015","bayes_rating":"6.64539","id":329465,"parent":0}},{"type":"Feature","geometry":{"type":"Point","coordinates":[9.552,5.13]},"properties":{"label":"Forum Trajanum","size":"2821","ratings":"7.23363","complexity":"3.4649","min_players":"2","max_players":"4","min_players_rec":"2","max_players_rec":"4","min_players_best":"3","max_players_best":"3","min_time":"60","max_time":"120","category":"1029,1028,1086","mechanic":"2940,2002,2015","bayes_rating":"6.50586","id":244049,"parent":0}},{"type":"Feature","geometry":{"type":"Point","coordinates":[9.61,7.03]},"properties":{"label":"Railroad Ink: Blazing Red Edition","size":"6852","ratings":"7.09404","complexity":"1.4615","min_players":"1","max_players":"6","min_players_rec":"1","max_players_rec":"6","min_players_best":"3","max_players_best":"3","min_time":"20","max_time":"30","category":"1017,1034","mechanic":"2999,2883,2072,2039,2081,2055","bayes_rating":"6.70774","id":251678,"parent":0}},{"type":"Feature","geometry":{"type":"Point","coordinates":[10.845,6.39]},"properties":{"label":"The River","size":"2294","ratings":"6.61474","complexity":"1.9655","min_players":"2","max_players":"4","min_players_rec":"2","max_players_rec":"4","min_players_best":"4","max_players_best":"4","min_time":"30","max_time":"45","category":"1020","mechanic":"2912,2002,2082","bayes_rating":"6.07961","id":257759,"parent":0}},{"type":"Feature","geometry":{"type":"Point","coordinates":[8.893,5.5]},"properties":{"label":"Black Angel","size":"4769","ratings":"7.24668","complexity":"3.8562","min_players":"1","max_players":"4","min_players_rec":"1","max_players_rec":"4","min_players_best":"3","max_players_best":"3","min_time":"60","max_time":"120","category":"1016,1113","mechanic":"2957,2072,2040,2959,2960,3005,2819,2002,2897,2935","bayes_rating":"6.69916","id":230244,"parent":0}},{"type":"Feature","geometry":{"type":"Point","coordinates":[8.48,6.13]},"properties":{"label":"In the Hall of the Mountain King","size":"4280","ratings":"7.61653","complexity":"2.8274","min_players":"2","max_players":"5","min_players_rec":"2","max_players_rec":"5","min_players_best":"3","max_players_best":"4","min_time":"90","max_time":"90","category":"1010,1086","mechanic":"2978,2081,2007,2019,2002","bayes_rating":"6.88322","id":265402,"parent":0}},{"type":"Feature","geometry":{"type":"Point","coordinates":[8.226,7.1]},"properties":{"label":"Honey Buzz","size":"5556","ratings":"7.59528","complexity":"2.7468","min_players":"1","max_players":"4","min_players_rec":"1","max_players_rec":"4","min_players_best":"3","max_players_best":"3","min_time":"45","max_time":"90","category":"1089,1021","mechanic":"2839,2912,2676,2026,2047,2041,2048,2819,2940,2002,2082","bayes_rating":"6.99402","id":284742,"parent":0}},{"type":"Feature","geometry":{"type":"Point","coordinates":[10.568,6.89]},"properties":{"label":"Archaeology: The New Expedition","size":"4051","ratings":"7.13056","complexity":"1.2796","min_players":"2","max_players":"5","min_players_rec":"2","max_players_rec":"5","min_players_best":"2","max_players_best":"5","min_time":"20","max_time":"20","category":"1002","mechanic":"2041,2661,2004","bayes_rating":"6.5751","id":191300,"parent":0}},{"type":"Feature","geometry":{"type":"Point","coordinates":[9.934,6.69]},"properties":{"label":"Paper Tales","size":"4862","ratings":"7.02919","complexity":"2.1714","min_players":"2","max_players":"5","min_players_rec":"2","max_players_rec":"5","min_players_best":"4","max_players_best":"4","min_time":"30","max_time":"30","category":"1002,1010","mechanic":"2984,2875,2040,2016,2020","bayes_rating":"6.5654","id":217861,"parent":0}},{"type":"Feature","geometry":{"type":"Point","coordinates":[9.909,5.1]},"properties":{"label":"Council of 4","size":"2944","ratings":"7.1417","complexity":"2.625","min_players":"2","max_players":"4","min_players_rec":"2","max_players_rec":"4","min_players_best":"3","max_players_best":"4","min_time":"40","max_time":"75","category":"1021","mechanic":"2040,2081,2078","bayes_rating":"6.47152","id":173101,"parent":0}},{"type":"Feature","geometry":{"type":"Point","coordinates":[9.071,6.05]},"properties":{"label":"IKI","size":"4762","ratings":"7.66329","complexity":"3.0422","min_players":"2","max_players":"4","min_players_rec":"2","max_players_rec":"4","min_players_best":"4","max_players_best":"4","min_time":"60","max_time":"90","category":"1035","mechanic":"2041,2911,2813,2004,2939,2826","bayes_rating":"6.98784","id":177478,"parent":0}},{"type":"Feature","geometry":{"type":"Point","coordinates":[10.615,6.21]},"properties":{"label":"Fabled Fruit","size":"6007","ratings":"6.99115","complexity":"1.6047","min_players":"2","max_players":"5","min_players_rec":"3","max_players_rec":"5","min_players_best":"4","max_players_best":"4","min_time":"20","max_time":"30","category":"1089,1002","mechanic":"2004,2082","bayes_rating":"6.60904","id":203427,"parent":0}},{"type":"Feature","geometry":{"type":"Point","coordinates":[9.91,7.28]},"properties":{"label":"Letter Jam","size":"4705","ratings":"7.19721","complexity":"1.963","min_players":"2","max_players":"6","min_players_rec":"2","max_players_rec":"6","min_players_best":"6","max_players_best":"6","min_time":"45","max_time":"45","category":"1002,1039,1030,1025","mechanic":"2893,2023,3113","bayes_rating":"6.68316","id":275467,"parent":0}},{"type":"Feature","geometry":{"type":"Point","coordinates":[9.558,5.33]},"properties":{"label":"The Manhattan Project: Energy Empire","size":"6088","ratings":"7.74887","complexity":"3.0359","min_players":"1","max_players":"5","min_players_rec":"1","max_players_rec":"5","min_players_best":"4","max_players_best":"4","min_time":"60","max_time":"120","category":"1015,1017,1021,1084,1088","mechanic":"2072,2856,2875,2850,2015,2082,2933","bayes_rating":"7.17124","id":176734,"parent":0}},{"type":"Feature","geometry":{"type":"Point","coordinates":[9.41,5.03]},"properties":{"label":"Gentes","size":"3466","ratings":"7.40333","complexity":"3.1752","min_players":"1","max_players":"4","min_players_rec":"2","max_players_rec":"4","min_players_best":"4","max_players_best":"4","min_time":"90","max_time":"90","category":"1050,1015","mechanic":"2838,2001,2041,2004,2829","bayes_rating":"6.69036","id":217780,"parent":0}},{"type":"Feature","geometry":{"type":"Point","coordinates":[8.533,6.38]},"properties":{"label":"Pan Am","size":"5691","ratings":"7.54749","complexity":"2.4","min_players":"2","max_players":"4","min_players_rec":"2","max_players_rec":"4","min_players_best":"3","max_players_best":"4","min_time":"60","max_time":"60","category":"2650,1021,1011","mechanic":"2931,2012,2883,2922,2072,2850,2902,2005,2829,2828,2082","bayes_rating":"6.96699","id":303057,"parent":0}},{"type":"Feature","geometry":{"type":"Point","coordinates":[10.817,6.53]},"properties":{"label":"Orbis","size":"2506","ratings":"6.63994","complexity":"2.04","min_players":"2","max_players":"4","min_players_rec":"2","max_players_rec":"4","min_players_best":"3","max_players_best":"3","min_time":"45","max_time":"45","category":"1015,1082,1086","mechanic":"2924,2875,2041,2002","bayes_rating":"6.12098","id":255507,"parent":0}},{"type":"Feature","geometry":{"type":"Point","coordinates":[8.072,7.1]},"properties":{"label":"Flamecraft","size":"12106","ratings":"7.46334","complexity":"2.1931","min_players":"1","max_players":"5","min_players_rec":"1","max_players_rec":"5","min_players_best":"3","max_players_best":"3","min_time":"60","max_time":"60","category":"1089,1002,1029,1010","mechanic":"2912,2875,2040,2011,2004,2082","bayes_rating":"7.08965","id":336986,"parent":0}},{"type":"Feature","geometry":{"type":"Point","coordinates":[7.905,6.5]},"properties":{"label":"Endless Winter: Paleoamericans","size":"7458","ratings":"7.77339","complexity":"3.2849","min_players":"1","max_players":"4","min_players_rec":"1","max_players_rec":"4","min_players_best":"3","max_players_best":"3","min_time":"60","max_time":"120","category":"1022,1036,1086","mechanic":"2080,2664,2875,2040,2902,2011,3099,2004,2819,2849,2827,2015,2897,2082","bayes_rating":"7.2185","id":305096,"parent":0}},{"type":"Feature","geometry":{"type":"Point","coordinates":[9.893,5.39]},"properties":{"label":"Riverboat","size":"2624","ratings":"7.43081","complexity":"2.9406","min_players":"2","max_players":"4","min_players_rec":"2","max_players_rec":"4","min_players_best":"4","max_players_best":"4","min_time":"90","max_time":"90","category":"1013","mechanic":"2838,2026,2041,2004,2002","bayes_rating":"6.59335","id":227515,"parent":0}},{"type":"Feature","geometry":{"type":"Point","coordinates":[7.84,6.37]},"properties":{"label":"Raiders of Scythia","size":"5221","ratings":"7.76935","complexity":"2.7184","min_players":"1","max_players":"4","min_players_rec":"1","max_players_rec":"4","min_players_best":"3","max_players_best":"3","min_time":"60","max_time":"80","category":"1050","mechanic":"2912,2072,2040,2041,2819,2015,2082,2933","bayes_rating":"7.08755","id":301880,"parent":0}},{"type":"Feature","geometry":{"type":"Point","coordinates":[9.408,5.34]},"properties":{"label":"Dice Settlers","size":"2768","ratings":"6.90837","complexity":"2.925","min_players":"1","max_players":"4","min_players_rec":"1","max_players_rec":"4","min_players_best":"3","max_players_best":"3","min_time":"45","max_time":"60","category":"1055,1015,1017,1020,1086","mechanic":"2080,2664,2072,2959,2004,2819,2002","bayes_rating":"6.30548","id":230267,"parent":0}},{"type":"Feature","geometry":{"type":"Point","coordinates":[8.626,5.21]},"properties":{"label":"Trismegistus: The Ultimate Formula","size":"3433","ratings":"7.59121","complexity":"4.1747","min_players":"1","max_players":"4","min_players_rec":"1","max_players_rec":"3","min_players_best":"2","max_players_best":"2","min_time":"90","max_time":"120","category":"1017","mechanic":"2001,2912,2072,2875,2843,2041,2015","bayes_rating":"6.75542","id":281442,"parent":0}},{"type":"Feature","geometry":{"type":"Point","coordinates":[9.148,5.24]},"properties":{"label":"Pret-a-Porter","size":"4780","ratings":"7.32875","complexity":"3.5627","min_players":"2","max_players":"4","min_players_rec":"2","max_players_rec":"4","min_players_best":"4","max_players_best":"4","min_time":"90","max_time":"90","category":"1021,1088","mechanic":"2904,2041,2004,2082","bayes_rating":"6.76232","id":87890,"parent":0}},{"type":"Feature","geometry":{"type":"Point","coordinates":[8.931,5.31]},"properties":{"label":"Cooper Island","size":"3859","ratings":"7.59244","complexity":"4.159","min_players":"1","max_players":"4","min_players_rec":"1","max_players_rec":"4","min_players_best":"3","max_players_best":"3","min_time":"60","max_time":"120","category":"1020,1008","mechanic":"2902,3001,2002,2829,2082,2933","bayes_rating":"6.84946","id":269511,"parent":0}},{"type":"Feature","geometry":{"type":"Point","coordinates":[10.165,6.81]},"properties":{"label":"Meeple Circus","size":"5784","ratings":"7.03306","complexity":"1.4388","min_players":"2","max_players":"5","min_players_rec":"2","max_players_rec":"5","min_players_best":"4","max_players_best":"5","min_time":"45","max_time":"45","category":"1032,1089","mechanic":"2041,2048,2661,2988","bayes_rating":"6.61139","id":193214,"parent":0}},{"type":"Feature","geometry":{"type":"Point","coordinates":[8.36,5.11]},"properties":{"label":"Tawantinsuyu: The Inca Empire","size":"2563","ratings":"7.4308","complexity":"4.1094","min_players":"1","max_players":"4","min_players_rec":"1","max_players_rec":"4","min_players_best":"3","max_players_best":"4","min_time":"60","max_time":"120","category":"1015,1021,1070","mechanic":"2001,2080,2040,2041,2048,2813,2004,2819,2897,2933","bayes_rating":"6.54741","id":306481,"parent":0}},{"type":"Feature","geometry":{"type":"Point","coordinates":[10.511,7.33]},"properties":{"label":"Imhotep: The Duel","size":"2835","ratings":"7.08497","complexity":"1.9655","min_players":"2","max_players":"2","min_players_rec":"2","max_players_rec":"2","min_players_best":"2","max_players_best":"2","min_time":"30","max_time":"30","category":"1050","mechanic":"2080,2011,2004,2082","bayes_rating":"6.42277","id":255674,"parent":0}},{"type":"Feature","geometry":{"type":"Point","coordinates":[9.409,5.78]},"properties":{"label":"Masters of Renaissance: Lorenzo il Magnifico - The Card Game","size":"1821","ratings":"7.1739","complexity":"2.0847","min_players":"1","max_players":"4","min_players_rec":"1","max_players_rec":"4","min_players_best":"2","max_players_best":"2","min_time":"30","max_time":"45","category":"1002,1021,1070","mechanic":"2041,2004,3005","bayes_rating":"6.28301","id":280453,"parent":0}},{"type":"Feature","geometry":{"type":"Point","coordinates":[8.961,5.16]},"properties":{"label":"Crystal Palace","size":"3297","ratings":"7.52293","complexity":"3.7935","min_players":"2","max_players":"5","min_players_rec":"2","max_players_rec":"4","min_players_best":"3","max_players_best":"3","min_time":"90","max_time":"150","category":"1017,1021","mechanic":"2875,2902,2904,2011,2004,2686,2827,2935","bayes_rating":"6.73804","id":280480,"parent":0}},{"type":"Feature","geometry":{"type":"Point","coordinates":[8.409,5.81]},"properties":{"label":"Vindication","size":"7046","ratings":"7.80021","complexity":"3.083","min_players":"2","max_players":"5","min_players_rec":"2","max_players_rec":"5","min_players_best":"4","max_players_best":"4","min_time":"45","max_time":"150","category":"1020,1010","mechanic":"2080,2072,2875,2026,2959,2011,2911,2079,2082","bayes_rating":"7.22398","id":224783,"parent":0}},{"type":"Feature","geometry":{"type":"Point","coordinates":[10.32,7.25]},"properties":{"label":"Herbaceous","size":"5464","ratings":"7.03453","complexity":"1.2083","min_players":"1","max_players":"4","min_players_rec":"1","max_players_rec":"4","min_players_best":"4","max_players_best":"4","min_time":"15","max_time":"20","category":"1002,1120","mechanic":"2661,2004,2819","bayes_rating":"6.58987","id":195314,"parent":0}},{"type":"Feature","geometry":{"type":"Point","coordinates":[10.73,6.05]},"properties":{"label":"Sentient","size":"2549","ratings":"7.20218","complexity":"2.2045","min_players":"2","max_players":"4","min_players_rec":"2","max_players_rec":"4","min_players_best":"3","max_players_best":"3","min_time":"30","max_time":"60","category":"1088,1104,1016","mechanic":"2080,2072,2041,2004","bayes_rating":"6.45141","id":223855,"parent":0}},{"type":"Feature","geometry":{"type":"Point","coordinates":[10.39,5.01]},"properties":{"label":"Saint Petersburg (Second Edition)","size":"3355","ratings":"7.46674","complexity":"2.6417","min_players":"2","max_players":"5","min_players_rec":"2","max_players_rec":"5","min_players_best":"4","max_players_best":"4","min_time":"60","max_time":"60","category":"2726,1002,1029,1021","mechanic":"2902,2041,2004","bayes_rating":"6.71693","id":156943,"parent":0}},{"type":"Feature","geometry":{"type":"Point","coordinates":[8.331,5.25]},"properties":{"label":"Caylus 1303","size":"2960","ratings":"7.45599","complexity":"2.8908","min_players":"2","max_players":"5","min_players_rec":"2","max_players_rec":"5","min_players_best":"4","max_players_best":"4","min_time":"60","max_time":"90","category":"1029,1021,1035","mechanic":"2689,2987,2911,2686,2829,2830,2015,2897,2082","bayes_rating":"6.63534","id":284818,"parent":0}},{"type":"Feature","geometry":{"type":"Point","coordinates":[7.915,7.14]},"properties":{"label":"Atlantis Rising (Second Edition)","size":"4324","ratings":"7.56658","complexity":"2.4579","min_players":"1","max_players":"7","min_players_rec":"1","max_players_rec":"7","min_players_best":"4","max_players_best":"4","min_time":"60","max_time":"120","category":"1050,1015,1017,1010,1082,1036,1016","mechanic":"2023,2072,2661,2819,2015,2082,2933","bayes_rating":"6.88483","id":248490,"parent":0}},{"type":"Feature","geometry":{"type":"Point","coordinates":[9.321,7.69]},"properties":{"label":"Coatl","size":"2527","ratings":"6.96253","complexity":"2.0286","min_players":"1","max_players":"4","min_players_rec":"1","max_players_rec":"4","min_players_best":"3","max_players_best":"3","min_time":"30","max_time":"60","category":"1009,1028","mechanic":"2912,2040,2846,2041,2048,2004","bayes_rating":"6.26159","id":274841,"parent":0}},{"type":"Feature","geometry":{"type":"Point","coordinates":[9.716,6.09]},"properties":{"label":"Rune Stones","size":"1820","ratings":"7.27601","complexity":"2.3529","min_players":"2","max_players":"4","min_players_rec":"2","max_players_rec":"4","min_players_best":"3","max_players_best":"3","min_time":"60","max_time":"60","category":"1010","mechanic":"2664,2072,2040,3099,2004","bayes_rating":"6.32552","id":285265,"parent":0}},{"type":"Feature","geometry":{"type":"Point","coordinates":[10.508,5.35]},"properties":{"label":"Shakespeare","size":"4364","ratings":"7.41805","complexity":"2.9944","min_players":"1","max_players":"4","min_players_rec":"2","max_players_rec":"4","min_players_best":"3","max_players_best":"3","min_time":"20","max_time":"90","category":"1070","mechanic":"2001,2012,2041,2819","bayes_rating":"6.79193","id":180511,"parent":0}},{"type":"Feature","geometry":{"type":"Point","coordinates":[8.251,5.41]},"properties":{"label":"Circadians: First Light","size":"2860","ratings":"7.5779","complexity":"3.414","min_players":"1","max_players":"4","min_players_rec":"1","max_players_rec":"4","min_players_best":"2","max_players_best":"2","min_time":"60","max_time":"90","category":"1017,1016,1113","mechanic":"2912,2072,2850,2016,2004,2015,2082,2935","bayes_rating":"6.68923","id":264052,"parent":0}},{"type":"Feature","geometry":{"type":"Point","coordinates":[8.369,5.53]},"properties":{"label":"Messina 1347","size":"2970","ratings":"7.60504","complexity":"3.5669","min_players":"1","max_players":"4","min_players_rec":"1","max_players_rec":"4","min_players_best":"3","max_players_best":"3","min_time":"60","max_time":"140","category":"1021,2145,1035","mechanic":"2676,2902,2011,2819,2939,2015,2897,2082","bayes_rating":"6.73162","id":238799,"parent":0}},{"type":"Feature","geometry":{"type":"Point","coordinates":[7.992,6.27]},"properties":{"label":"Revive","size":"5771","ratings":"8.17882","complexity":"3.4133","min_players":"1","max_players":"4","min_players_rec":"1","max_players_rec":"4","min_players_best":"3","max_players_best":"3","min_time":"90","max_time":"120","category":"1015,1088,1016","mechanic":"2664,2959,2081,2822,2849,2015","bayes_rating":"7.44368","id":332772,"parent":0}},{"type":"Feature","geometry":{"type":"Point","coordinates":[9.801,6.85]},"properties":{"label":"The Grimm Forest","size":"5803","ratings":"7.08593","complexity":"1.9394","min_players":"2","max_players":"4","min_players_rec":"3","max_players_rec":"4","min_players_best":"4","max_players_best":"4","min_time":"45","max_time":"60","category":"1089,1010","mechanic":"2003,2004,2020,2686","bayes_rating":"6.60787","id":212402,"parent":0}},{"type":"Feature","geometry":{"type":"Point","coordinates":[8.304,5.68]},"properties":{"label":"Golem","size":"3496","ratings":"7.58569","complexity":"3.9787","min_players":"1","max_players":"4","min_players_rec":"1","max_players_rec":"4","min_players_best":"2","max_players_best":"3","min_time":"90","max_time":"120","category":"1010,1093,1070","mechanic":"2838,2902,2004,2015,2897,2082","bayes_rating":"6.78819","id":298383,"parent":0}},{"type":"Feature","geometry":{"type":"Point","coordinates":[8.273,6.21]},"properties":{"label":"Gutenberg","size":"1967","ratings":"7.37896","complexity":"2.7011","min_players":"1","max_players":"4","min_players_rec":"2","max_players_rec":"4","min_players_best":"3","max_players_best":"3","min_time":"60","max_time":"120","category":"1088","mechanic":"2012,2912,2041,2020,2819,2828,2015,2082","bayes_rating":"6.42171","id":339958,"parent":0}},{"type":"Feature","geometry":{"type":"Point","coordinates":[7.862,6.97]},"properties":{"label":"Libertalia: Winds of Galecrest","size":"5496","ratings":"7.48433","complexity":"2.1314","min_players":"1","max_players":"6","min_players_rec":"1","max_players_rec":"6","min_players_best":"4","max_players_best":"6","min_time":"45","max_time":"60","category":"1010,1090","mechanic":"2689,2040,2926,2004,2020,2686,2833,2079","bayes_rating":"6.92002","id":356033,"parent":0}},{"type":"Feature","geometry":{"type":"Point","coordinates":[9.409,7.47]},"properties":{"label":"Clever Cubed","size":"2908","ratings":"7.50155","complexity":"2.4247","min_players":"1","max_players":"4","min_players_rec":"1","max_players_rec":"4","min_players_best":"2","max_players_best":"2","min_time":"30","max_time":"30","category":"1017,1098","mechanic":"2072,2055,2870,2819","bayes_rating":"6.66973","id":316546,"parent":0}},{"type":"Feature","geometry":{"type":"Point","coordinates":[10.938,5.39]},"properties":{"label":"Scoville","size":"5375","ratings":"7.12419","complexity":"2.7797","min_players":"2","max_players":"6","min_players_rec":"2","max_players_rec":"5","min_players_best":"4","max_players_best":"4","min_time":"60","max_time":"90","category":"1013","mechanic":"2012,2676,2846,2004,2827","bayes_rating":"6.66892","id":145659,"parent":0}},{"type":"Feature","geometry":{"type":"Point","coordinates":[8.859,5]},"properties":{"label":"Vinhos: Deluxe Edition","size":"6620","ratings":"8.10061","complexity":"4.0056","min_players":"1","max_players":"4","min_players_rec":"1","max_players_rec":"4","min_players_best":"4","max_players_best":"4","min_time":"60","max_time":"135","category":"1021,1088","mechanic":"2080,2079,2082","bayes_rating":"7.46631","id":175640,"parent":0}},{"type":"Feature","geometry":{"type":"Point","coordinates":[9.448,4.41]},"properties":{"label":"Agra","size":"2396","ratings":"7.30705","complexity":"4.3433","min_players":"2","max_players":"4","min_players_rec":"2","max_players_rec":"4","min_players_best":"4","max_players_best":"4","min_time":"90","max_time":"120","category":"1088","mechanic":"2080,2008,2082","bayes_rating":"6.46698","id":230085,"parent":0}},{"type":"Feature","geometry":{"type":"Point","coordinates":[9.582,4.6]},"properties":{"label":"The Colonists","size":"4169","ratings":"7.55108","complexity":"4.0826","min_players":"1","max_players":"4","min_players_rec":"1","max_players_rec":"3","min_players_best":"2","max_players_best":"2","min_time":"30","max_time":"360","category":"1015","mechanic":"2046,2040,2011,2041,2819,2002,2082","bayes_rating":"6.85741","id":192836,"parent":0}},{"type":"Feature","geometry":{"type":"Point","coordinates":[10.776,5.54]},"properties":{"label":"La Granja: No Siesta","size":"2397","ratings":"6.79176","complexity":"2.1892","min_players":"1","max_players":"4","min_players_rec":"1","max_players_rec":"4","min_players_best":"2","max_players_best":"2","min_time":"30","max_time":"45","category":"1017,1013","mechanic":"2072,2041,2055","bayes_rating":"6.20865","id":195528,"parent":0}},{"type":"Feature","geometry":{"type":"Point","coordinates":[10.842,5.26]},"properties":{"label":"Automania","size":"2474","ratings":"7.32367","complexity":"2.74","min_players":"2","max_players":"4","min_players_rec":"2","max_players_rec":"4","min_players_best":"4","max_players_best":"4","min_time":"60","max_time":"90","category":"1021,1088","mechanic":"2041,2002,2015,2082","bayes_rating":"6.51689","id":176544,"parent":0}},{"type":"Feature","geometry":{"type":"Point","coordinates":[9.389,5.18]},"properties":{"label":"Rise of Tribes","size":"3001","ratings":"7.14002","complexity":"2.177","min_players":"2","max_players":"4","min_players_rec":"2","max_players_rec":"4","min_players_best":"3","max_players_best":"4","min_time":"30","max_time":"60","category":"1015,1017,1036","mechanic":"2080,2072,2850,2011,2876,2015","bayes_rating":"6.4467","id":202583,"parent":0}},{"type":"Feature","geometry":{"type":"Point","coordinates":[9.117,6.84]},"properties":{"label":"Shards of Infinity","size":"4666","ratings":"7.47973","complexity":"1.9889","min_players":"2","max_players":"4","min_players_rec":"2","max_players_rec":"3","min_players_best":"2","max_players_best":"2","min_time":"30","max_time":"30","category":"1002,1010,1046,1016","mechanic":"2664,2901,2040,2041,2686","bayes_rating":"6.83179","id":244115,"parent":0}},{"type":"Feature","geometry":{"type":"Point","coordinates":[10.866,5.06]},"properties":{"label":"Jorvik","size":"2230","ratings":"6.80068","complexity":"2.3968","min_players":"2","max_players":"5","min_players_rec":"2","max_players_rec":"5","min_players_best":"4","max_players_best":"4","min_time":"45","max_time":"90","category":"","mechanic":"2012,2932,2082","bayes_rating":"6.17133","id":193739,"parent":0}},{"type":"Feature","geometry":{"type":"Point","coordinates":[10.247,6.06]},"properties":{"label":"Unfair","size":"4973","ratings":"7.32781","complexity":"2.7227","min_players":"2","max_players":"5","min_players_rec":"2","max_players_rec":"5","min_players_best":"3","max_players_best":"4","min_time":"50","max_time":"125","category":"1002,1029,1021,1120","mechanic":"2040,2902,2904,2041,2004,2686,2828","bayes_rating":"6.70211","id":179172,"parent":0}},{"type":"Feature","geometry":{"type":"Point","coordinates":[10.222,4.5]},"properties":{"label":"Kraftwagen","size":"2559","ratings":"7.23094","complexity":"2.8276","min_players":"2","max_players":"4","min_players_rec":"2","max_players_rec":"4","min_players_best":"4","max_players_best":"4","min_time":"75","max_time":"75","category":"1021,1088","mechanic":"2813,2004,2663,2082","bayes_rating":"6.47603","id":171879,"parent":0}},{"type":"Feature","geometry":{"type":"Point","coordinates":[10.344,4.89]},"properties":{"label":"Myrmes","size":"5544","ratings":"7.26036","complexity":"3.4527","min_players":"2","max_players":"4","min_players_rec":"2","max_players_rec":"4","min_players_best":"4","max_players_best":"4","min_time":"60","max_time":"120","category":"1089,1084,1013","mechanic":"2978,2676,2026,2081,2082","bayes_rating":"6.76763","id":126792,"parent":0}},{"type":"Feature","geometry":{"type":"Point","coordinates":[11.056,5.69]},"properties":{"label":"Alien Artifacts","size":"2739","ratings":"6.5704","complexity":"2.9206","min_players":"2","max_players":"5","min_players_rec":"2","max_players_rec":"4","min_players_best":"2","max_players_best":"3","min_time":"60","max_time":"60","category":"1002,1016,1113","mechanic":"2040,2041,2004,2079","bayes_rating":"6.10322","id":181293,"parent":0}},{"type":"Feature","geometry":{"type":"Point","coordinates":[9.411,4.69]},"properties":{"label":"Calimala","size":"2260","ratings":"7.20435","complexity":"2.7887","min_players":"3","max_players":"5","min_players_rec":"3","max_players_rec":"5","min_players_best":"4","max_players_best":"4","min_time":"75","max_time":"75","category":"1021,1088,1035,1070,1011,1097","mechanic":"2080,2875,2011,2844,2897,2082","bayes_rating":"6.40865","id":199383,"parent":0}},{"type":"Feature","geometry":{"type":"Point","coordinates":[8.409,6.27]},"properties":{"label":"Viscounts of the West Kingdom","size":"9556","ratings":"7.84257","complexity":"3.4506","min_players":"1","max_players":"4","min_players_rec":"1","max_players_rec":"4","min_players_best":"3","max_players_best":"3","min_time":"60","max_time":"90","category":"1035","mechanic":"2080,2664,2875,2040,2886,2011,2813,2004,2819,2015","bayes_rating":"7.38758","id":296151,"parent":0}},{"type":"Feature","geometry":{"type":"Point","coordinates":[8.8,5.84]},"properties":{"label":"Bonfire","size":"6219","ratings":"7.67563","complexity":"3.6392","min_players":"1","max_players":"4","min_players_rec":"1","max_players_rec":"4","min_players_best":"3","max_players_best":"3","min_time":"70","max_time":"100","category":"1010,1028","mechanic":"2900,2048,2078,2004,2819,2002","bayes_rating":"7.10883","id":304420,"parent":0}},{"type":"Feature","geometry":{"type":"Point","coordinates":[8.819,6]},"properties":{"label":"Smartphone Inc","size":"6005","ratings":"7.58975","complexity":"2.7662","min_players":"1","max_players":"5","min_players_rec":"3","max_players_rec":"5","min_players_best":"5","max_players_best":"5","min_time":"60","max_time":"90","category":"1021,1088","mechanic":"2689,2080,3001,2081,2020,2819,2897","bayes_rating":"7.04943","id":246684,"parent":0}},{"type":"Feature","geometry":{"type":"Point","coordinates":[7.601,6.3]},"properties":{"label":"Dwellings of Eldervale","size":"6609","ratings":"8.18891","complexity":"3.2456","min_players":"1","max_players":"5","min_players_rec":"1","max_players_rec":"5","min_players_best":"3","max_players_best":"3","min_time":"60","max_time":"150","category":"1010","mechanic":"2072,2040,2011,2819,2015,2082,2933","bayes_rating":"7.49215","id":271055,"parent":0}},{"type":"Feature","geometry":{"type":"Point","coordinates":[7.852,5.95]},"properties":{"label":"Darwin's Journey","size":"5204","ratings":"8.19937","complexity":"3.8584","min_players":"1","max_players":"4","min_players_rec":"1","max_players_rec":"4","min_players_best":"3","max_players_best":"3","min_time":"60","max_time":"120","category":"1020,1097","mechanic":"2912,2911,2078,2004,2826,2897,2933","bayes_rating":"7.39351","id":322289,"parent":0}},{"type":"Feature","geometry":{"type":"Point","coordinates":[8.212,6.75]},"properties":{"label":"Fort","size":"9426","ratings":"7.12526","complexity":"2.4267","min_players":"2","max_players":"4","min_players_rec":"2","max_players_rec":"4","min_players_best":"3","max_players_best":"3","min_time":"20","max_time":"40","category":"1002","mechanic":"2664,2843,2040","bayes_rating":"6.80154","id":296912,"parent":0}},{"type":"Feature","geometry":{"type":"Point","coordinates":[9.322,5.5]},"properties":{"label":"Nusfjord","size":"6260","ratings":"7.64232","complexity":"2.8387","min_players":"1","max_players":"5","min_players_rec":"1","max_players_rec":"5","min_players_best":"1","max_players_best":"3","min_time":"20","max_time":"100","category":"1021,1008","mechanic":"2082","bayes_rating":"7.10663","id":234277,"parent":0}},{"type":"Feature","geometry":{"type":"Point","coordinates":[8.654,5.04]},"properties":{"label":"Escape Plan","size":"5124","ratings":"7.51862","complexity":"3.6678","min_players":"1","max_players":"5","min_players_rec":"1","max_players_rec":"5","min_players_best":"4","max_players_best":"4","min_time":"60","max_time":"120","category":"1022","mechanic":"2046,2043,2026,2011,2041,2876,2002,2015","bayes_rating":"6.91157","id":142379,"parent":0}},{"type":"Feature","geometry":{"type":"Point","coordinates":[8.713,5.41]},"properties":{"label":"Alma Mater","size":"2748","ratings":"7.37854","complexity":"3.7516","min_players":"2","max_players":"4","min_players_rec":"2","max_players_rec":"4","min_players_best":"4","max_players_best":"4","min_time":"90","max_time":"150","category":"1070","mechanic":"2984,2875,2040,2002,2082","bayes_rating":"6.56509","id":299960,"parent":0}},{"type":"Feature","geometry":{"type":"Point","coordinates":[10.103,6.07]},"properties":{"label":"Yamatai","size":"6572","ratings":"7.19265","complexity":"2.9657","min_players":"2","max_players":"4","min_players_rec":"2","max_players_rec":"4","min_players_best":"2","max_players_best":"2","min_time":"40","max_time":"80","category":"1082","mechanic":"2838,2912,2914,2011,2081","bayes_rating":"6.77012","id":213893,"parent":0}},{"type":"Feature","geometry":{"type":"Point","coordinates":[8.496,7.32]},"properties":{"label":"Welcome to the Moon","size":"6367","ratings":"7.9796","complexity":"2.5072","min_players":"1","max_players":"6","min_players_rec":"1","max_players_rec":"6","min_players_best":"1","max_players_best":"4","min_time":"25","max_time":"30","category":"1029,1016","mechanic":"2999,2851,2055,2048,2876,2822,2020,2819","bayes_rating":"7.34014","id":339789,"parent":0}},{"type":"Feature","geometry":{"type":"Point","coordinates":[8.66,7.38]},"properties":{"label":"Splendor Duel","size":"8389","ratings":"7.98012","complexity":"1.9653","min_players":"2","max_players":"2","min_players_rec":"2","max_players_rec":"2","min_players_best":"2","max_players_best":"2","min_time":"30","max_time":"30","category":"1002,1021,1070","mechanic":"2912,2041,2876,2004","bayes_rating":"7.44303","id":364073,"parent":0}},{"type":"Feature","geometry":{"type":"Point","coordinates":[7.749,5.49]},"properties":{"label":"Great Western Trail: Argentina","size":"2744","ratings":"8.4786","complexity":"3.8839","min_players":"1","max_players":"4","min_players_rec":"1","max_players_rec":"4","min_players_best":"3","max_players_best":"3","min_time":"75","max_time":"150","category":"1089,1021","mechanic":"2664,2040,2911,2004,2819,2939,2897","bayes_rating":"7.20515","id":364011,"parent":0}},{"type":"Feature","geometry":{"type":"Point","coordinates":[8.101,5.36]},"properties":{"label":"Reavers of Midgard","size":"2822","ratings":"7.38787","complexity":"2.9362","min_players":"2","max_players":"4","min_players_rec":"2","max_players_rec":"4","min_players_best":"4","max_players_best":"4","min_time":"60","max_time":"120","category":"","mechanic":"2072,2843,2041,2004,2082","bayes_rating":"6.57866","id":242684,"parent":0}},{"type":"Feature","geometry":{"type":"Point","coordinates":[9.414,4.87]},"properties":{"label":"Kanban: Driver's Edition","size":"6779","ratings":"7.78742","complexity":"4.365","min_players":"2","max_players":"4","min_players_rec":"2","max_players_rec":"4","min_players_best":"3","max_players_best":"4","min_time":"90","max_time":"120","category":"1021,1088","mechanic":"2001,2013,2079,2082","bayes_rating":"7.23593","id":109276,"parent":0}},{"type":"Feature","geometry":{"type":"Point","coordinates":[10.097,5.51]},"properties":{"label":"First Class: All Aboard the Orient Express!","size":"5675","ratings":"7.41906","complexity":"2.7887","min_players":"2","max_players":"4","min_players_rec":"2","max_players_rec":"4","min_players_best":"4","max_players_best":"4","min_time":"40","max_time":"80","category":"1002,1034","mechanic":"2041,2004,2897","bayes_rating":"6.90429","id":206941,"parent":0}},{"type":"Feature","geometry":{"type":"Point","coordinates":[7.643,5.63]},"properties":{"label":"Brazil: Imperial","size":"2850","ratings":"7.64452","complexity":"2.9936","min_players":"1","max_players":"4","min_players_rec":"2","max_players_rec":"4","min_players_best":"4","max_players_best":"4","min_time":"100","max_time":"100","category":"1029,1015,1020,1088,1086","mechanic":"2857,2912,2676,2026,2011,2846,2041,2819,2002,2015","bayes_rating":"6.65467","id":249277,"parent":0}},{"type":"Feature","geometry":{"type":"Point","coordinates":[7.62,5.31]},"properties":{"label":"Weather Machine","size":"2894","ratings":"7.8357","complexity":"4.5929","min_players":"2","max_players":"4","min_players_rec":"1","max_players_rec":"4","min_players_best":"3","max_players_best":"3","min_time":"60","max_time":"150","category":"1016","mechanic":"2001,2004,2002,2082","bayes_rating":"6.80955","id":237179,"parent":0}},{"type":"Feature","geometry":{"type":"Point","coordinates":[8.929,6.57]},"properties":{"label":"Witchstone","size":"2982","ratings":"7.5841","complexity":"2.77","min_players":"2","max_players":"4","min_players_rec":"2","max_players_rec":"4","min_players_best":"3","max_players_best":"3","min_time":"60","max_time":"90","category":"1010","mechanic":"2875,2978,2026,2081,2041,2078,2002","bayes_rating":"6.72129","id":318560,"parent":0}},{"type":"Feature","geometry":{"type":"Point","coordinates":[7.611,5.78]},"properties":{"label":"Rococo: Deluxe Edition","size":"3057","ratings":"8.22705","complexity":"3.0583","min_players":"1","max_players":"5","min_players_rec":"1","max_players_rec":"4","min_players_best":"3","max_players_best":"3","min_time":"60","max_time":"120","category":"2726,1021,1088","mechanic":"2080,2664,2901,2875,2040,2902,2041,2004","bayes_rating":"7.14919","id":296100,"parent":0}},{"type":"Feature","geometry":{"type":"Point","coordinates":[8.117,5.72]},"properties":{"label":"CloudAge","size":"2189","ratings":"7.25421","complexity":"2.8265","min_players":"1","max_players":"4","min_players_rec":"1","max_players_rec":"4","min_players_best":"3","max_players_best":"3","min_time":"60","max_time":"100","category":"1022,1016","mechanic":"2664,2676,2040,2822","bayes_rating":"6.40152","id":316858,"parent":0}},{"type":"Feature","geometry":{"type":"Point","coordinates":[7.546,6.07]},"properties":{"label":"Mosaic: A Story of Civilization","size":"3377","ratings":"7.60763","complexity":"2.935","min_players":"2","max_players":"6","min_players_rec":"3","max_players_rec":"5","min_players_best":"4","max_players_best":"4","min_time":"120","max_time":"120","category":"1050,1015,1021,1086","mechanic":"2689,2080,2875,2040,2041,2004,3100,2015,2897","bayes_rating":"6.77932","id":329551,"parent":0}},{"type":"Feature","geometry":{"type":"Point","coordinates":[7.192,5.96]},"properties":{"label":"The Great Wall","size":"3847","ratings":"7.87669","complexity":"3.9","min_players":"1","max_players":"4","min_players_rec":"1","max_players_rec":"4","min_players_best":"3","max_players_best":"3","min_time":"120","max_time":"180","category":"1021,1010,1086","mechanic":"2080,2841,2023,2902,2910,2016,2819,2829,2082,2933","bayes_rating":"6.95501","id":292375,"parent":0}},{"type":"Feature","geometry":{"type":"Point","coordinates":[9.824,4.97]},"properties":{"label":"Bruxelles 1893","size":"5476","ratings":"7.6126","complexity":"3.5865","min_players":"2","max_players":"5","min_players_rec":"2","max_players_rec":"5","min_players_best":"4","max_players_best":"4","min_time":"50","max_time":"125","category":"1021","mechanic":"2080,2012,2011,2041,2082","bayes_rating":"7.02773","id":144592,"parent":0}},{"type":"Feature","geometry":{"type":"Point","coordinates":[7.553,5.91]},"properties":{"label":"Hansa Teutonica: Big Box","size":"4523","ratings":"8.38892","complexity":"2.9508","min_players":"3","max_players":"5","min_players_rec":"3","max_players_rec":"5","min_players_best":"5","max_players_best":"5","min_time":"45","max_time":"90","category":"1035","mechanic":"2001,2080,2875,2081,2911,2849","bayes_rating":"7.48964","id":286749,"parent":0}},{"type":"Feature","geometry":{"type":"Point","coordinates":[9.483,5.48]},"properties":{"label":"New Frontiers","size":"3666","ratings":"7.4256","complexity":"2.95","min_players":"2","max_players":"5","min_players_rec":"2","max_players_rec":"5","min_players_best":"4","max_players_best":"4","min_time":"45","max_time":"75","category":"1016,1113","mechanic":"2838,2843,2914,2041,2876,2829,2079,2015","bayes_rating":"6.72986","id":255692,"parent":0}},{"type":"Feature","geometry":{"type":"Point","coordinates":[10.369,5.98]},"properties":{"label":"The Castles of Burgundy: The Card Game","size":"6741","ratings":"6.95687","complexity":"2.5686","min_players":"1","max_players":"4","min_players_rec":"1","max_players_rec":"4","min_players_best":"2","max_players_best":"2","min_time":"30","max_time":"60","category":"1002","mechanic":"2040,2041,2004,2829,2828","bayes_rating":"6.60991","id":191977,"parent":0}},{"type":"Feature","geometry":{"type":"Point","coordinates":[9.934,6.01]},"properties":{"label":"The Pursuit of Happiness","size":"5503","ratings":"7.17921","complexity":"2.5368","min_players":"1","max_players":"4","min_players_rec":"1","max_players_rec":"4","min_players_best":"3","max_players_best":"3","min_time":"60","max_time":"90","category":"1021","mechanic":"2875,2902,2041,2070,2819,2826,2015,2082","bayes_rating":"6.71297","id":181687,"parent":0}},{"type":"Feature","geometry":{"type":"Point","coordinates":[10.129,5.19]},"properties":{"label":"Amerigo","size":"6141","ratings":"7.44464","complexity":"2.9822","min_players":"2","max_players":"4","min_players_rec":"2","max_players_rec":"4","min_players_best":"4","max_players_best":"4","min_time":"90","max_time":"90","category":"1008,1070","mechanic":"2001,2990,2676,2011,2002","bayes_rating":"6.95536","id":137408,"parent":0}},{"type":"Feature","geometry":{"type":"Point","coordinates":[7.451,6.26]},"properties":{"label":"The White Castle","size":"7167","ratings":"7.97452","complexity":"3.0145","min_players":"1","max_players":"4","min_players_rec":"1","max_players_rec":"4","min_players_best":"3","max_players_best":"3","min_time":"80","max_time":"80","category":"1017,1021","mechanic":"2838,2072,3099,2041,2819,2897,2082,2935","bayes_rating":"7.35156","id":371942,"parent":0}},{"type":"Feature","geometry":{"type":"Point","coordinates":[7.754,7.43]},"properties":{"label":"Dinosaur Island: Rawr 'n Write","size":"3323","ratings":"7.73527","complexity":"2.8","min_players":"1","max_players":"4","min_players_rec":"1","max_players_rec":"4","min_players_best":"2","max_players_best":"2","min_time":"30","max_time":"45","category":"1089,1016","mechanic":"2883,2072,2978,2081,2055,2935","bayes_rating":"6.85004","id":318009,"parent":0}},{"type":"Feature","geometry":{"type":"Point","coordinates":[9.836,6.13]},"properties":{"label":"Valeria: Card Kingdoms","size":"5576","ratings":"7.45266","complexity":"1.9776","min_players":"1","max_players":"5","min_players_rec":"2","max_players_rec":"4","min_players_best":"3","max_players_best":"3","min_time":"30","max_time":"45","category":"1002,1017,1010","mechanic":"2072,2041,2909,2897","bayes_rating":"6.89405","id":170561,"parent":0}},{"type":"Feature","geometry":{"type":"Point","coordinates":[8.19,4.9]},"properties":{"label":"Tabannusi: Builders of Ur","size":"1474","ratings":"7.39622","complexity":"3.8687","min_players":"1","max_players":"4","min_players_rec":"2","max_players_rec":"4","min_players_best":"4","max_players_best":"4","min_time":"120","max_time":"120","category":"1050,1029","mechanic":"2689,2080,2912,2072,2875,2041,2911,2002","bayes_rating":"6.28531","id":316786,"parent":0}},{"type":"Feature","geometry":{"type":"Point","coordinates":[7.41,7.07]},"properties":{"label":"Clank!: Catacombs","size":"4569","ratings":"8.30881","complexity":"2.5208","min_players":"2","max_players":"4","min_players_rec":"2","max_players_rec":"4","min_players_best":"3","max_players_best":"3","min_time":"45","max_time":"90","category":"1022,1010","mechanic":"2664,2901,2875,2947,2041,2685,2078,2661,2002,2897","bayes_rating":"7.39866","id":365717,"parent":0}},{"type":"Feature","geometry":{"type":"Point","coordinates":[9.366,7.32]},"properties":{"label":"Roam","size":"3779","ratings":"7.30714","complexity":"1.825","min_players":"2","max_players":"4","min_players_rec":"2","max_players_rec":"4","min_players_best":"3","max_players_best":"3","min_time":"30","max_time":"45","category":"1002,1010","mechanic":"2839,2080,3098,2978,2940","bayes_rating":"6.65723","id":267319,"parent":0}},{"type":"Feature","geometry":{"type":"Point","coordinates":[8.007,5.44]},